;_id;date;name;popularity;time;type;date_name;lat;lng;popularity_median;followers_sum;danceability_median;energy_median;key_mode;loudness_median;mode_mode;speechiness_median;acousticness_median;instrumentalness_median;liveness_median;valence_median;duration_ms_mean;time_signature_mode
51;5af9c7730cc9ab0004e2284f;15/5/2018 0:00;Barbara Hannigan at Royal Opera House (May 15, 2018);0.00012;;Concert;Tuesday;51.512061;-0.1229647;21;2218;0.2895;0.0574;[7];-24.931;[1];0.05115;0.97;0.0986;0.1195;0.04765;403164.8;[4]
154;5afab9cddcab560004a0af78;16/5/2018 0:00;Brutalligators and After London at The Monarch (May 16, 2018);8.00E-06;19:00:00;Concert;Wednesday;51.5429763;-0.1483958;17;21273;0.494;0.803;[5];-6.001;[1];0.0372;0.000315;0.0108;0.26;0.276;271684.4;[4]
267;5afabb12dcab560004a0b089;18/5/2018 0:00;Barbara Hannigan at Royal Opera House (May 18, 2018);0.00012;;Concert;Friday;51.512061;-0.1229647;21;2222;0.2895;0.0574;[7];-24.931;[1];0.05115;0.97;0.0986;0.1195;0.04765;403164.8;[4]
428;5afabd8ddcab560004a0b271;19/5/2018 0:00;Fabio And Grooverider, Ed Solo, MC GQ, The Ragga Twins, and 4 more… at Dalston Roof Park (May 19, 2018);0.003468;2:30:00;Concert;Saturday;51.5469092;-0.0747739;22.5;22152;0.633;0.785;[2];-6.135;[1];0.0615;0.0277;0.494;0.104;0.474;303721.6863;[4]
552;5afabeefdcab560004a0b38f;22/5/2018 0:00;Of The Wand & The Moon and Dark Red Seed at The Underworld (May 22, 2018);0.000866;19:00:00;Concert;Tuesday;51.538488;-0.142103;17;7679;0.344;0.557;[7];-8.359;[1];0.0344;0.0746;0.749;0.13;0.173;340657.0667;[4]
582;5afaec7df4259d0004b0e449;13/4/2018 0:00;Epica with Oceans of Slumber and Myrkur at O2 Forum Kentish Town (April 13, 2018);0.016096;19:00:00;Concert;Friday;51.5521427;-0.1422245;44;373913;0.283;0.8415;[2];-5.4485;[0];0.04965;0.005855;0.0125;0.138;0.221;329678.4667;[4]
837;5afaef42f4259d0004b0e6d0;17/4/2018 0:00;Angra, Operation: Mindcrime, Halcyon Way, and Ravenscry at The Underworld (April 17, 2018);0.005358;19:00:00;Concert;Tuesday;51.538488;-0.142103;23.5;164603;0.482;0.9475;[9];-5.093;[0];0.07845;0.000233;0.0006405;0.21;0.326;279019.45;[4]
1148;5afaf2f4f4259d0004b0e9e6;22/4/2018 0:00;Dark Red Seed with Of The Wand & The Moon at The Underworld (April 22, 2018);0.000859;;Concert;Sunday;51.538488;-0.142103;17;7680;0.344;0.557;[7];-8.359;[1];0.0344;0.0746;0.749;0.13;0.173;340657.0667;[4]
1370;5afaf5aff4259d0004b0ec1c;10/5/2018 0:00;Protomartyr with Ana Da Silva and Rattle at Scala (May 10, 2018);0.005703;19:30:00;Concert;Thursday;51.5309284;-0.1202729;46;58895;0.367;0.5665;[4];-8.8835;[0];0.04365;0.6775;0.6955;0.1235;0.344;244001.3667;[4]
1381;5afaf5d3f4259d0004b0ec37;10/5/2018 0:00;Barbara Hannigan at Royal Opera House (May 10, 2018);0.00012;;Concert;Thursday;51.512061;-0.1229647;21;2223;0.2895;0.0574;[7];-24.931;[1];0.05115;0.97;0.0986;0.1195;0.04765;403164.8;[4]
1489;5afcd5404054df00043ae552;24/5/2018 0:00;Barbara Hannigan at Royal Opera House (May 24, 2018);0.00012;;Concert;Thursday;51.512061;-0.1229647;21;2223;0.2895;0.0574;[7];-24.931;[1];0.05115;0.97;0.0986;0.1195;0.04765;403164.8;[4]
1687;5aff79c784d273000431ff5e;26/5/2018 0:00;Barbara Hannigan at Royal Opera House (May 26, 2018);0.00012;;Concert;Saturday;51.512061;-0.1229647;21;2228;0.2895;0.0574;[7];-24.931;[1];0.05115;0.97;0.0986;0.1195;0.04765;403164.8;[4]
2;5af9c6e30cc9ab0004e227d6;14/5/2018 0:00;Ólafur Arnalds with Manu Delago at Royal Albert Hall (May 14, 2018);0.032852;18:45:00;Concert;Monday;51.500786;-0.1781517;50.5;279290;0.3685;0.232;[3];-16.8295;[1];0.03685;0.9635;0.8985;0.09895;0.1255;276532.15;[4]
8;5af9c6f40cc9ab0004e227e4;14/5/2018 0:00;The English Concert and Kristian Bezuidenhout at Kings Place (May 14, 2018);0.003748;20:00:00;Concert;Monday;51.534649;-0.122138;48.5;7646;0.348;0.128;[1];-23.47;[1];0.0403;0.927;0.26975;0.1045;0.191;332290.85;[4]
33;5af9c7360cc9ab0004e2281d;14/5/2018 0:00;Simon James at Marylebone Boys School (May 14, 2018);0.000257;9:30:00;Concert;Monday;51.5430054;-0.2109866;31;101;0.189;0.215;[2];-22.037;[1];0.0405;0.353;0.8475;0.103;0.07155;180115.6;[4]
34;5af9c7380cc9ab0004e2281e;14/5/2018 0:00;Simon James at The Crest Academy (May 14, 2018);0.000257;;Concert;Monday;51.5649247;-0.2382002;31;101;0.189;0.215;[2];-22.037;[1];0.0405;0.353;0.8475;0.103;0.07155;180115.6;[4]
92;5af9d775985cfc00044f816e;15/5/2018 0:00;Doug Thomas at Albert's Club (May 15, 2018);1.00E-06;18:30:00;Concert;Tuesday;51.492418;-0.1779701;19;54;0.3985;0.09755;[2];-19.096;[1];0.04815;0.985;0.926;0.1105;0.3405;184242.9;[3]
152;5afab9c7dcab560004a0af73;16/5/2018 0:00;Maciek Pysz at The Bull's Head (May 16, 2018);2.20E-05;20:00:00;Concert;Wednesday;51.4735908;-0.2509234;7;87;0.482;0.1205;[7];-18.3295;[0];0.04805;0.982;0.7405;0.108;0.1975;272929.2;[4]
184;5afaba26dcab560004a0afc3;17/5/2018 0:00;London Symphony Orchestra and Michael Tilson Thomas at Barbican Centre (May 17, 2018);0.033964;19:30:00;Concert;Thursday;51.5198644;-0.0916989;60;149542;0.289;0.211;[0];-19.0375;[1];0.04205;0.9285;0.871;0.11;0.1067;348944.75;[4]
241;5afababfdcab560004a0b049;18/5/2018 0:00;Kronos Quartet and Kronos String Quartet at Barbican Centre (May 18, 2018);0.018471;19:30:00;Concert;Friday;51.5198644;-0.0916989;54;46161;0.3005;0.2205;[7];-21.1125;[0];0.0409;0.9365;0.889;0.0968;0.07425;422454.5;[4]
242;5afabac1dcab560004a0b04b;18/5/2018 0:00;The Academy Of Ancient Music at LSO St Luke's (May 18, 2018);0.003799;13:00:00;Concert;Friday;51.5247879;-0.0939684;21;23;0.216;0.1275;[3];-18.7645;[0];0.04145;0.9885;0.33;0.1395;0.1975;356689.9;[4]
251;5afabadcdcab560004a0b060;18/5/2018 0:00;Trio Da Kali at Barbican Centre (May 18, 2018);7.20E-05;19:00:00;Concert;Friday;51.5198644;-0.0916989;30;2364;0.575;0.327;[0];-10.5195;[1];0.0361;0.899;0.02015;0.1075;0.5585;280577.3;[4]
345;5afabc1cdcab560004a0b15b;19/5/2018 0:00;Nigel Kennedy at Royal Festival Hall, Southbank Centre (May 19, 2018);0.004194;19:00:00;Concert;Saturday;51.5033996;-0.117448;51;20635;0.363;0.185;[5];-17.488;[0];0.0451;0.8655;0.7935;0.141;0.3125;240979.9;[4]
401;5afabd25dcab560004a0b21f;19/5/2018 0:00;Anchorsong with Owiny Sigoma Band at Village Underground (May 19, 2018);0.002645;22:00:00;Concert;Saturday;51.5237877;-0.0780335;31.5;12974;0.763;0.6805;[0];-9.6945;[1];0.04965;0.203;0.68;0.126;0.7255;263658.35;[4]
452;5afabdd0dcab560004a0b2a9;20/5/2018 0:00;Philharmonia Orchestra with Vladimir Ashkenazy, Pekka Kuusisto, David Butt Philip, and 3 more… at Royal Festival Hall, Southbank Centre (May 20, 2018);0.010224;19:00:00;Concert;Sunday;51.5033996;-0.117448;39;50020;0.248;0.128;[0];-18.667;[1];0.0405;0.928;0.727;0.117;0.0612;397577.0364;[4]
455;5afabdd8dcab560004a0b2ae;20/5/2018 0:00;London Symphony Orchestra with Michael Tilson Thomas at Barbican Centre (May 20, 2018);0.033964;19:00:00;Concert;Sunday;51.5198644;-0.0916989;60;149542;0.289;0.211;[0];-19.0375;[1];0.04205;0.9285;0.871;0.11;0.1067;348944.75;[4]
588;5afaec87f4259d0004b0e455;13/4/2018 0:00;The Academy Of Ancient Music and Richard Egarr at Milton Court Concert Hall, Guildhall School of Music & Drama (April 13, 2018);0.003799;19:30:00;Concert;Friday;51.52044;-0.092311;34.5;1879;0.2415;0.1405;[1];-22.391;[1];0.03625;0.9525;0.5795;0.116;0.284;314271;[4]
604;5afaecb7f4259d0004b0e481;13/4/2018 0:00;Thomas Gould, Kristjan Randalu, and Stephan Braun at Kings Place (April 13, 2018);0.000123;19:30:00;Concert;Friday;51.534649;-0.122138;34;865;0.2485;0.1475;[7];-21.2895;[1];0.0399;0.948;0.8555;0.154;0.1205;245026.6;[4]
614;5afaecdbf4259d0004b0e49f;13/4/2018 0:00;Ayanna Witter-Johnson at Cutty Sark (April 13, 2018);0.000259;;Concert;Friday;51.4814581;-0.0083094;14;701;0.739;0.27;[7];-7.449;[1];0.0605;0.757;2.48E-05;0.11;0.455;221339.5556;[4]
627;5afaed02f4259d0004b0e4c3;13/4/2018 0:00;Winterfylleth with Nhor and Jo Quail at St Pancras Old Church (April 13, 2018);0.00114;19:30:00;Concert;Friday;51.5334728;-0.1286371;16;13251;0.408;0.2005;[4];-16.8555;[0];0.0446;0.9065;0.8795;0.103;0.07365;330840.7667;[4]
758;5afaee7cf4259d0004b0e617;15/4/2018 0:00;Esa-Pekka Salonen and Philharmonia Orchestra with Philharmonia Voices and Trinity Boys Choir at Royal Festival Hall, Southbank Centre (April 15, 2018);0.010224;19:00:00;Concert;Sunday;51.5033996;-0.117448;31;30535;0.204;0.1065;[0];-21.929;[1];0.04475;0.928;0.323;0.139;0.06395;488618.475;[4]
762;5afaee84f4259d0004b0e620;15/4/2018 0:00;Peter Broderick with Hatis Noit at The Jazz Cafe (April 15, 2018);0.009782;19:00:00;Concert;Sunday;51.5387092;-0.1430815;35;37623;0.284;0.1745;[9];-15.2585;[1];0.04385;0.9555;0.805;0.108;0.085;318794;[4]
765;5afaee8ff4259d0004b0e628;15/4/2018 0:00;Philharmonia Orchestra and Vito Žuraj with Joana Mallwitz and Nika Gori? at Royal Festival Hall, Southbank Centre (April 15, 2018);0.010224;17:30:00;Concert;Sunday;51.5033996;-0.117448;30;25281;0.235;0.122;[2];-17.568;[1];0.0424;0.963;0.856;0.115;0.0956;294855.6364;[4]
772;5afaeea4f4259d0004b0e637;15/4/2018 0:00;London Symphony Orchestra and Susanna Mälkki at Barbican Centre (April 15, 2018);0.033964;19:00:00;Concert;Sunday;51.5198644;-0.0916989;38;146064;0.248;0.185;[5];-21.536;[1];0.0472;0.919;0.801;0.0998;0.0765;391905.3158;[4]
868;5afaef9ef4259d0004b0e71e;17/4/2018 0:00;City of London Sinfonia at Albany, Deptford (April 17, 2018);0.000713;13:30:00;Concert;Tuesday;51.4778092;-0.027372;44;1092;0.195;0.0603;[0];-23.2855;[1];0.04375;0.952;0.5595;0.113;0.1335;235094.7;[4]
869;5afaef9ff4259d0004b0e71f;17/4/2018 0:00;City of London Sinfonia at Albany, Deptford (April 17, 2018);0.000713;19:00:00;Concert;Tuesday;51.4778092;-0.027372;44;1092;0.195;0.0603;[0];-23.2855;[1];0.04375;0.952;0.5595;0.113;0.1335;235094.7;[4]
874;5afaefaaf4259d0004b0e72b;17/4/2018 0:00;Midori Takada with Jan Jelinek at Union Chapel (April 17, 2018);0.00201;19:00:00;Concert;Tuesday;51.5443277;-0.1028893;22;16281;0.408;0.315;[6];-18.074;[0];0.0614;0.528;0.884;0.108;0.237;388337.4545;[4]
884;5afaefc4f4259d0004b0e744;18/4/2018 0:00;London Chamber Orchestra at Cadogan Hall (April 18, 2018);0.000342;19:30:00;Concert;Wednesday;51.4935705;-0.1573407;55;8065;0.133;0.1485;[9];-14.9645;[0];0.03715;0.892;0.888;0.1065;0.058;210893.4;[3]
905;5afaf006f4259d0004b0e77d;18/4/2018 0:00;Tyondai Braxton with Kaitlyn Aurelia Smith, Qasim Naqvi, Edgard Varèse, and 2 more… at Queen Elizabeth Hall, Southbank Centre (April 18, 2018);0.002333;19:30:00;Concert;Wednesday;51.5112139;-0.1198244;35.5;32555;0.277;0.2875;[0];-18.466;[1];0.04455;0.8735;0.8245;0.1105;0.0775;308754.18;[4]
971;5afaf0c9f4259d0004b0e820;19/4/2018 0:00;London Symphony Orchestra and Sir Simon Rattle at Barbican Centre (April 19, 2018);0.033964;19:30:00;Concert;Thursday;51.5198644;-0.0916989;62.5;176410;0.2965;0.1185;[7];-21.31;[0];0.04065;0.9285;0.8785;0.105;0.09275;259781.35;[4]
972;5afaf0cef4259d0004b0e823;19/4/2018 0:00;The English Concert, Harry Bicket, and Nadja Zwiener at Wigmore Hall (April 19, 2018);0.003748;19:30:00;Concert;Thursday;51.5165187;-0.1483276;30;6415;0.387;0.129;[1];-20.199;[1];0.0468;0.96;0.0632;0.111;0.284;296339.8571;[4]
1082;5afaf23cf4259d0004b0e956;21/4/2018 0:00;The Queen's Birthday Party 2018;0.18987;;Festival;Saturday;51.500786;-0.1781517;72;12212229;0.6255;0.624;[0];-6.7515;[1];0.05925;0.2175;0;0.118;0.532;211650.95;[4]
1118;5afaf29df4259d0004b0e9a5;22/4/2018 0:00;Tokio Myers at O2 Shepherd's Bush Empire (April 22, 2018);0.00011;19:00:00;Concert;Sunday;51.503507;-0.2238407;52;61636;0.427;0.3935;[1];-8.627;[0];0.042;0.776;0.3166;0.117;0.10905;206248.8;[4]
1121;5afaf2a5f4259d0004b0e9aa;22/4/2018 0:00;London Symphony Orchestra and Sir Simon Rattle at Barbican Centre (April 22, 2018);0.033964;;Concert;Sunday;51.5198644;-0.0916989;62.5;176410;0.2965;0.1185;[7];-21.31;[0];0.04065;0.9285;0.8785;0.105;0.09275;259781.35;[4]
1152;5afaf2fcf4259d0004b0e9ee;6/5/2018 0:00;Itzhak Perlman at Royal Festival Hall, Southbank Centre (May 6, 2018);0.009995;19:30:00;Concert;Sunday;51.5033996;-0.117448;58;50331;0.264;0.147;[7];-19.175;[0];0.04235;0.933;0.655;0.1105;0.12045;203902.6;[3]
1167;5afaf347f4259d0004b0ea27;6/5/2018 0:00;Alex Stolze with Anne Müller and Ben Osborn at The Old Church (May 6, 2018);0.000221;20:00:00;Concert;Sunday;51.5611087;-0.0837867;21;1005;0.459;0.333;[0];-12.994;[0];0.0469;0.717;0.549;0.104;0.122;277863.6;[4]
1273;5afaf4a3f4259d0004b0eb39;8/5/2018 0:00;City of London Sinfonia and Brett Dean at Queen Elizabeth Hall, Southbank Centre (May 8, 2018);0.000681;;Concert;Tuesday;51.5112139;-0.1198244;30;1305;0.1795;0.05785;[7];-22.967;[1];0.0434;0.932;0.4545;0.117;0.07;315740.65;[4]
1302;5afaf4ebf4259d0004b0eb7a;8/5/2018 0:00;Lexie Official and Simon James at Capital City Academy (May 8, 2018);0.000257;9:00:00;Concert;Tuesday;51.5374954;-0.2325113;31;101;0.189;0.215;[2];-22.037;[1];0.0405;0.353;0.8475;0.103;0.07155;180115.6;[4]
1303;5afaf4eef4259d0004b0eb7b;8/5/2018 0:00;Lexie Official and Simon James at Preston Manor School (May 8, 2018);0.000257;13:00:00;Concert;Tuesday;51.5665225;-0.2885407;31;101;0.189;0.215;[2];-22.037;[1];0.0405;0.353;0.8475;0.103;0.07155;180115.6;[4]
1318;5afaf51bf4259d0004b0eb9e;9/5/2018 0:00;James Heather and Iskra String Quartet with Emilie Levienaise-Farrouch at St Pancras Old Church (May 9, 2018);0.000257;19:30:00;Concert;Wednesday;51.5334728;-0.1286371;19;2985;0.2265;0.1625;[0];-17.883;[0];0.03815;0.9715;0.867;0.1045;0.05865;219940.1667;[4]
1332;5afaf54df4259d0004b0ebc5;9/5/2018 0:00;Avi Avital and BBC Symphony Orchestra at Barbican Centre (May 9, 2018);0.002418;19:30:00;Concert;Wednesday;51.5198644;-0.0916989;43;13014;0.359;0.19;[0];-18.2405;[0];0.0385;0.912;0.887;0.1205;0.1385;393541.3;[4]
1339;5afaf55df4259d0004b0ebd4;9/5/2018 0:00;The Sixteen at Old Royal Naval College Chapel (May 9, 2018);0.001857;19:00:00;Concert;Wednesday;51.4809311;-0.0080335;47;15102;0.1695;0.0747;[10];-26.37;[1];0.04535;0.9885;0.01136;0.1095;0.0499;371785.7;[4]
1361;5afaf598f4259d0004b0ec08;9/5/2018 0:00;Simon James and Lexie Official at Brampton Manor Academy (May 9, 2018);0.000257;9:00:00;Concert;Wednesday;51.5219046;0.0422213;31;101;0.189;0.215;[2];-22.037;[1];0.0405;0.353;0.8475;0.103;0.07155;180115.6;[4]
1378;5afaf5ccf4259d0004b0ec32;10/5/2018 0:00;Philharmonia Orchestra with Adrian Partington, Marie-Elisabeth Hecker, Eleanor Dennis, and 1 more… at Royal Festival Hall, Southbank Centre (May 10, 2018);0.010224;19:00:00;Concert;Thursday;51.5033996;-0.117448;17.5;25480;0.21;0.09055;[0];-22.562;[1];0.0427;0.951;0.577;0.1035;0.0853;337647.1316;[4]
1384;5afaf5def4259d0004b0ec40;10/5/2018 0:00;Gigi Masin at The Jazz Cafe (May 10, 2018);0.000393;19:00:00;Concert;Thursday;51.5387092;-0.1430815;32;4161;0.379;0.06295;[1];-25.249;[0];0.0359;0.9635;0.912;0.09955;0.0643;369961.4;[3]
1483;5afcd52b4054df00043ae542;24/5/2018 0:00;Philharmonia Orchestra with Daniele Gatti at Royal Festival Hall, Southbank Centre (May 24, 2018);0.010224;19:00:00;Concert;Thursday;51.5033996;-0.117448;41.5;25586;0.191;0.0982;[2];-22.308;[1];0.0407;0.927;0.8695;0.103;0.0579;421732.65;[4]
1484;5afcd5304054df00043ae546;24/5/2018 0:00;Philharmonia Orchestra and Christian Mason with Gergely Madaras and Anu Komsi at Royal Festival Hall, Southbank Centre (May 24, 2018);0.010224;17:30:00;Concert;Thursday;51.5033996;-0.117448;4.5;25389;0.222;0.0977;[2];-22.467;[1];0.043;0.963;0.0711;0.111;0.0543;318102.88;[4]
1504;5afcd5704054df00043ae576;24/5/2018 0:00;Hotel Pro Forma and Latvian Radio Choir at Queen Elizabeth Hall, Southbank Centre (May 24, 2018);0.000232;19:30:00;Concert;Thursday;51.5112139;-0.1198244;39;1327;0.176;0.07325;[8];-23.4225;[1];0.04245;0.985;0.864;0.103;0.03985;228988.7;[3]
1515;5afcd58c4054df00043ae58d;24/5/2018 0:00;Lukas Lauermann at IKLECTIK (May 24, 2018);4.00E-06;20:00:00;Concert;Thursday;51.4975713;-0.1152588;6;122;0.183;0.1715;[7];-17.89;[1];0.0488;0.9075;0.7295;0.1012;0.0442;208733.1;[4]
1525;5afcd5ac4054df00043ae5a4;24/5/2018 0:00;Orla Gartland with Nick Wilson and Greta Isaac at Thousand Island (formerly Upstairs at The Garage) (May 24, 2018);0.004262;19:00:00;Concert;Thursday;51.5466983;-0.1038429;38;29271;0.585;0.395;[2];-8.759;[1];0.0328;0.552;1.99E-06;0.1;0.328;231649.7778;[4]
1573;5aff777b84d273000431fdd5;25/5/2018 0:00;The Academy Of Ancient Music with Rowan Pierce, Andrew Tortise, Ashley Riches - bass, and 1 more… at LSO St Luke's (May 25, 2018);0.003799;13:00:00;Concert;Friday;51.5247879;-0.0939684;21;1898;0.266;0.1495;[1];-22.243;[1];0.03775;0.9565;0.4505;0.1075;0.3575;271836.7;[4]
1574;5aff77ee84d273000431fe19;25/5/2018 0:00;All Points East 2018;0.413306;;;;;;;;;;;;;;;;;;;
, 'bass music', 'deep house', 'deep soul house', 'float house', 'future garage', 'microhouse', 'minimal tech house', 'minimal techno', 'tech house', 'deep house', 'deep house', 'deep soul house', 'float house', 'chamber psych', 'acid house', 'chicago house', 'deep house', 'deep soul house', 'detroit techno', 'float house', 'minimal tech house', 'minimal techno', 'outsider house', 'techno', 'aussietronica', 'deep australian indie', 'art pop', 'bass music', 'chamber psych', 'dub techno', 'float house', 'fluxwork', 'intelligent dance music', 'mandible', 'microhouse', 'minimal techno', 'outsider house', 'blues', 'brill building pop', 'chicago soul', 'christmas', 'electric blues', 'funk', 'jazz blues', 'memphis blues', 'memphis soul', 'motown', 'new orleans blues', 'quiet storm', 'rock-and-roll', 'soul', 'soul blues', 'southern soul', 'vocal jazz', 'float house', 'uk hip hop', 'fluxwork', 'dub techno', 'float house', 'fluxwork', 'microhouse', 'outsider house'], 'popularity': [73, 79, 69, 68, 65, 67, 63, 62, 70, 64, 59, 65, 53, 66, 67, 55, 63, 65, 61, 67, 55, 72, 52, 75, 58, 75, 56, 79, 59, 63, 62, 59, 54, 60, 62, 37, 42, 39, 55, 58, 42, 39, 60, 41, 64, 60, 56, 40, 46, 42, 40, 36, 45, 47, 34, 36, 36, 49, 31, 40, 55, 28, 15, 47, 10, 20, 19, 9, 27, 3], 'popularity_mean': 51.285714285714285, 'popularity_median': 55.5, 'popularity_min': 3, 'popularity_max': 79, 'followers': [2807115, 3138665, 755353, 1306626, 649769, 1010694, 648765, 731271, 723616, 224512, 353669, 492364, 159634, 370040, 285198, 184026, 276738, 245279, 230224, 182349, 86412, 227851, 105809, 461680, 145293, 295284, 84031, 63285, 67637, 118691, 48176, 126931, 91010, 9756, 108128, 122189, 31830, 23189, 105501, 117379, 14689, 25246, 57650, 20349, 67231, 27746, 76651, 14294, 41697, 3924, 31575, 19702, 15545, 10513, 12269, 4580, 5842, 12289, 5945, 5167, 89015, 4730, 1691, 7487, 322, 1576, 1543, 297, 2008, 54], 'followers_sum': 17797596, 'danceability': [0.607, 0.723, 0.424, 0.752, 0.759, 0.765, 0.863, 0.627, 0.774, 0.762, 0.636, 0.616, 0.542, 0.534, 0.621, 0.691, 0.587, 0.654, 0.762, 0.418, 0.614, 0.623, 0.648, 0.59, 0.542, 0.657, 0.51, 0.611, 0.864, 0.673, 0.755, 0.635, 0.607, 0.622, 0.518, 0.625, 0.645, 0.608, 0.699, 0.629, 0.738, 0.523, 0.562, 0.683, 0.445, 0.521, 0.504, 0.598, 0.504, 0.625, 0.786, 0.538, 0.489, 0.599, 0.578, 0.312, 0.819, 0.371, 0.65, 0.523, 0.613, 0.693, 0.511, 0.602, 0.625, 0.584, 0.525, 0.575, 0.619, 0.617, 0.464, 0.515, 0.454, 0.616, 0.332, 0.689, 0.495, 0.723, 0.496, 0.362, 0.482, 0.688, 0.644, 0.727, 0.736, 0.695, 0.548, 0.591, 0.627, 0.781, 0.8, 0.786, 0.67, 0.829, 0.821, 0.791, 0.739, 0.843, 0.817, 0.692, 0.526, 0.346, 0.603, 0.722, 0.438, 0.18, 0.625, 0.765, 0.466, 0.699, 0.739, 0.58, 0.701, 0.722, 0.922, 0.39, 0.644, 0.752, 0.375, 0.767, 0.647, 0.703, 0.419, 0.61, 0.595, 0.83, 0.529, 0.705, 0.554, 0.623, 0.427, 0.473, 0.377, 0.528, 0.436, 0.4, 0.577, 0.589, 0.4, 0.456, 0.621, 0.596, 0.65, 0.775, 0.803, 0.768, 0.68, 0.452, 0.556, 0.736, 0.58, 0.833, 0.765, 0.673, 0.582, 0.741, 0.651, 0.7, 0.583, 0.709, 0.695, 0.656, 0.56, 0.769, 0.955, 0.354, 0.808, 0.46, 0.804, 0.525, 0.847, 0.558, 0.764, 0.77, 0.666, 0.808, 0.876, 0.652, 0.851, 0.731, 0.65, 0.623, 0.675, 0.43, 0.46, 0.63, 0.364, 0.61, 0.272, 0.43, 0.458, 0.638, 0.584, 0.533, 0.686, 0.461, 0.623, 0.531, 0.546, 0.499, 0.716, 0.708, 0.843, 0.698, 0.783, 0.801, 0.735, 0.778, 0.766, 0.674, 0.788, 0.944, 0.927, 0.802, 0.845, 0.785, 0.852, 0.714, 0.839, 0.362, 0.734, 0.844, 0.815, 0.774, 0.579, 0.799, 0.752, 0.754, 0.488, 0.624, 0.597, 0.473, 0.45, 0.422, 0.653, 0.71, 0.794, 0.678, 0.399, 0.435, 0.438, 0.595, 0.746, 0.669, 0.383, 0.392, 0.637, 0.556, 0.489, 0.496, 0.756, 0.575, 0.384, 0.405, 0.61, 0.567, 0.399, 0.568, 0.86, 0.781, 0.402, 0.664, 0.637, 0.637, 0.693, 0.426, 0.226, 0.581, 0.522, 0.443, 0.896, 0.805, 0.782, 0.539, 0.682, 0.874, 0.494, 0.723, 0.829, 0.78, 0.729, 0.697, 0.713, 0.715, 0.743, 0.682, 0.629, 0.711, 0.293, 0.599, 0.635, 0.728, 0.551, 0.452, 0.625, 0.632, 0.547, 0.576, 0.744, 0.513, 0.695, 0.498, 0.658, 0.749, 0.541, 0.666, 0.511, 0.371, 0.587, 0.624, 0.674, 0.673, 0.61, 0.741, 0.618, 0.586, 0.523, 0.666, 0.68, 0.708, 0.724, 0.788, 0.752, 0.53, 0.787, 0.899, 0.754, 0.628, 0.819, 0.906, 0.713, 0.566, 0.681, 0.689, 0.798, 0.748, 0.475, 0.554, 0.666, 0.528, 0.577, 0.576, 0.739, 0.509, 0.446, 0.528, 0.674, 0.619, 0.59, 0.527, 0.729, 0.73, 0.714, 0.817, 0.853, 0.724, 0.696, 0.59, 0.699, 0.791, 0.722, 0.719, 0.562, 0.63, 0.727, 0.761, 0.368, 0.717, 0.795, 0.731, 0.387, 0.331, 0.326, 0.538, 0.548, 0.561, 0.78, 0.549, 0.536, 0.422, 0.54, 0.77, 0.726, 0.63, 0.633, 0.62, 0.637, 0.638, 0.55, 0.437, 0.569, 0.643, 0.746, 0.707, 0.688, 0.64, 0.606, 0.787, 0.777, 0.695, 0.256, 0.578, 0.507, 0.404, 0.467, 0.227, 0.566, 0.469, 0.26, 0.582, 0.71, 0.798, 0.409, 0.806, 0.708, 0.242, 0.779, 0.799, 0.805, 0.741, 0.863, 0.81, 0.746, 0.659, 0.784, 0.788, 0.81, 0.921, 0.928, 0.824, 0.561, 0.534, 0.518, 0.482, 0.67, 0.583, 0.345, 0.599, 0.618, 0.489, 0.665, 0.698, 0.584, 0.623, 0.672, 0.717, 0.464, 0.525, 0.494, 0.562, 0.352, 0.231, 0.437, 0.155, 0.129, 0.56, 0.185, 0.597, 0.499, 0.637, 0.929, 0.605, 0.732, 0.757, 0.827, 0.4, 0.862, 0.443, 0.77, 0.819, 0.801, 0.655, 0.736, 0.803, 0.822, 0.729, 0.888, 0.445, 0.739, 0.519, 0.801, 0.541, 0.639, 0.608, 0.648, 0.747, 0.727, 0.562, 0.683, 0.722, 0.564, 0.383, 0.804, 0.384, 0.767, 0.703, 0.807, 0.721, 0.697, 0.655, 0.757, 0.756, 0.797, 0.912, 0.81, 0.576, 0.323, 0.631, 0.274, 0.646, 0.699, 0.442, 0.662, 0.45, 0.676, 0.517, 0.261, 0.493, 0.686, 0.458, 0.657, 0.462, 0.693, 0.246, 0.678, 0.471, 0.801, 0.709, 0.521, 0.507, 0.633, 0.638, 0.647, 0.607, 0.658, 0.734, 0.708, 0.874, 0.75, 0.678, 0.772, 0.754, 0.755, 0.401, 0.649, 0.68, 0.848, 0.693, 0.52, 0.908, 0.695, 0.305, 0.488, 0.171, 0.805, 0.811, 0.81, 0.914, 0.808, 0.842, 0.819, 0.8, 0.837, 0.807, 0.663, 0.834, 0.754, 0.635, 0.641, 0.733, 0.732, 0.816, 0.584, 0.562, 0.378, 0.744, 0.758, 0.617, 0.633, 0.693, 0.66, 0.768, 0.692, 0.556, 0.611, 0.624, 0.563, 0.771, 0.62, 0.612, 0.599, 0.683, 0.722, 0.6, 0.733, 0.55, 0.599, 0.625, 0.674, 0.585, 0.566, 0.567, 0.454, 0.746, 0.934, 0.804, 0.802, 0.459, 0.447, 0.844, 0.704, 0.868, 0.663, 0.655, 0.706, 0.503, 0.563, 0.608, 0.528, 0.583, 0.425, 0.519, 0.708, 0.491, 0.819, 0.626, 0.894, 0.732, 0.714, 0.43, 0.846, 0.732, 0.73, 0.716, 0.618, 0.659, 0.652, 0.744, 0.599, 0.769, 0.795, 0.772, 0.802, 0.692, 0.53, 0.344, 0.808, 0.765, 0.91, 0.917, 0.609, 0.629, 0.852, 0.814, 0.639, 0.539, 0.796, 0.748, 0.568, 0.802, 0.802, 0.822, 0.803, 0.803, 0.794, 0.81, 0.811, 0.791, 0.755, 0.543, 0.767, 0.799, 0.603, 0.342, 0.822, 0.737, 0.762, 0.486, 0.453, 0.197, 0.514, 0.6, 0.677, 0.612, 0.579, 0.487, 0.501], 'danceability_mean': 0.6373391557496361, 'danceability_median': 0.648, 'danceability_min': 0.129, 'danceability_max': 0.955, 'energy': [0.789, 0.669, 0.157, 0.543, 0.909, 0.486, 0.474, 0.721, 0.709, 0.481, 0.436, 0.714, 0.55, 0.218, 0.574, 0.575, 0.442, 0.389, 0.437, 0.448, 0.617, 0.706, 0.942, 0.96, 0.82, 0.915, 0.728, 0.597, 0.391, 0.673, 0.553, 0.786, 0.835, 0.75, 0.909, 0.7, 0.63, 0.781, 0.814, 0.735, 0.607, 0.939, 0.903, 0.848, 0.962, 0.855, 0.947, 0.81, 0.967, 0.789, 0.696, 0.586, 0.343, 0.533, 0.596, 0.445, 0.736, 0.0731, 0.903, 0.621, 0.962, 0.789, 0.524, 0.793, 0.815, 0.66, 0.634, 0.625, 0.726, 0.663, 0.125, 0.438, 0.77, 0.404, 0.708, 0.637, 0.476, 0.726, 0.495, 0.701, 0.373, 0.334, 0.728, 0.676, 0.292, 0.668, 0.526, 0.445, 0.404, 0.798, 0.775, 0.853, 0.904, 0.755, 0.716, 0.879, 0.82, 0.757, 0.654, 0.898, 0.936, 0.753, 0.606, 0.828, 0.529, 0.719, 0.801, 0.598, 0.698, 0.926, 0.611, 0.622, 0.788, 0.894, 0.838, 0.37, 0.73, 0.844, 0.728, 0.787, 0.86, 0.719, 0.924, 0.913, 0.898, 0.714, 0.801, 0.744, 0.922, 0.821, 0.684, 0.609, 0.84, 0.672, 0.804, 0.426, 0.829, 0.492, 0.752, 0.26, 0.199, 0.362, 0.418, 0.517, 0.618, 0.393, 0.428, 0.558, 0.227, 0.551, 0.47, 0.199, 0.522, 0.218, 0.36, 0.572, 0.116, 0.104, 0.304, 0.33, 0.558, 0.457, 0.896, 0.756, 0.37, 0.578, 0.518, 0.914, 0.751, 0.584, 0.37, 0.327, 0.449, 0.72, 0.324, 0.34, 0.388, 0.621, 0.47, 0.213, 0.495, 0.377, 0.724, 0.631, 0.529, 0.715, 0.663, 0.83, 0.83, 0.75, 0.597, 0.699, 0.689, 0.645, 0.612, 0.603, 0.482, 0.71, 0.709, 0.725, 0.914, 0.931, 0.558, 0.764, 0.781, 0.544, 0.644, 0.89, 0.7, 0.685, 0.711, 0.514, 0.551, 0.607, 0.57, 0.379, 0.664, 0.373, 0.536, 0.236, 0.853, 0.783, 0.887, 0.847, 0.913, 0.858, 0.848, 0.758, 0.831, 0.903, 0.291, 0.371, 0.3, 0.349, 0.265, 0.407, 0.448, 0.336, 0.387, 0.234, 0.325, 0.61, 0.419, 0.504, 0.341, 0.472, 0.178, 0.637, 0.54, 0.158, 0.609, 0.714, 0.765, 0.505, 0.305, 0.199, 0.468, 0.263, 0.332, 0.452, 0.758, 0.858, 0.555, 0.66, 0.59, 0.708, 0.328, 0.435, 0.845, 0.855, 0.673, 0.674, 0.671, 0.801, 0.812, 0.789, 0.829, 0.88, 0.717, 0.849, 0.456, 0.578, 0.547, 0.612, 0.547, 0.595, 0.686, 0.46, 0.234, 0.921, 0.3, 0.686, 0.648, 0.579, 0.499, 0.646, 0.529, 0.385, 0.63, 0.393, 0.609, 0.467, 0.853, 0.538, 0.712, 0.647, 0.818, 0.381, 0.803, 0.66, 0.747, 0.753, 0.508, 0.461, 0.714, 0.513, 0.54, 0.668, 0.63, 0.444, 0.528, 0.491, 0.638, 0.623, 0.465, 0.365, 0.407, 0.4, 0.529, 0.343, 0.755, 0.701, 0.779, 0.803, 0.561, 0.65, 0.769, 0.892, 0.751, 0.725, 0.604, 0.535, 0.453, 0.339, 0.798, 0.616, 0.464, 0.459, 0.34, 0.521, 0.648, 0.814, 0.662, 0.403, 0.874, 0.968, 0.838, 0.948, 0.762, 0.78, 0.619, 0.78, 0.719, 0.463, 0.497, 0.905, 0.935, 0.432, 0.571, 0.743, 0.379, 0.674, 0.541, 0.818, 0.779, 0.408, 0.385, 0.868, 0.794, 0.675, 0.168, 0.235, 0.127, 0.875, 0.411, 0.31, 0.312, 0.549, 0.382, 0.424, 0.685, 0.612, 0.839, 0.63, 0.588, 0.511, 0.642, 0.8, 0.812, 0.688, 0.844, 0.341, 0.873, 0.927, 0.501, 0.29, 0.69, 0.757, 0.225, 0.455, 0.619, 0.763, 0.403, 0.521, 0.639, 0.00582, 0.925, 0.937, 0.893, 0.842, 0.533, 0.818, 0.765, 0.757, 0.587, 0.692, 0.811, 0.384, 0.716, 0.666, 0.905, 0.62, 0.695, 0.794, 0.899, 0.654, 0.682, 0.814, 0.836, 0.587, 0.842, 0.542, 0.905, 0.923, 0.545, 0.69, 0.82, 0.676, 0.815, 0.617, 0.551, 0.0119, 0.129, 0.043, 0.0192, 0.31, 0.0534, 0.317, 0.436, 0.0228, 0.572, 0.443, 0.504, 0.524, 0.469, 0.0552, 0.59, 0.67, 0.576, 0.492, 0.554, 0.147, 0.668, 0.525, 0.629, 0.664, 0.795, 0.522, 0.499, 0.57, 0.544, 0.495, 0.659, 0.48, 0.657, 0.323, 0.491, 0.289, 0.595, 0.549, 0.605, 0.189, 0.495, 0.53, 0.862, 0.744, 0.424, 0.842, 0.788, 0.792, 0.892, 0.677, 0.783, 0.64, 0.686, 0.758, 0.169, 0.665, 0.697, 0.818, 0.708, 0.593, 0.861, 0.614, 0.606, 0.436, 0.515, 0.388, 0.831, 0.586, 0.405, 0.577, 0.438, 0.249, 0.57, 0.585, 0.774, 0.65, 0.345, 0.542, 0.833, 0.43, 0.409, 0.382, 0.602, 0.528, 0.639, 0.475, 0.715, 0.59, 0.834, 0.399, 0.617, 0.543, 0.453, 0.83, 0.318, 0.832, 0.495, 0.775, 0.822, 0.0748, 0.0171, 0.175, 0.602, 0.518, 0.59, 0.505, 0.727, 0.445, 0.606, 0.915, 0.384, 0.512, 0.978, 0.723, 0.912, 0.981, 0.769, 0.72, 0.834, 0.885, 0.907, 0.778, 0.334, 0.714, 0.677, 0.501, 0.661, 0.778, 0.656, 0.644, 0.684, 0.125, 0.896, 0.93, 0.852, 0.743, 0.946, 0.768, 0.826, 0.804, 0.802, 0.886, 0.624, 0.368, 0.348, 0.548, 0.658, 0.406, 0.245, 0.435, 0.328, 0.55, 0.433, 0.679, 0.811, 0.222, 0.637, 0.597, 0.863, 0.609, 0.792, 0.713, 0.712, 0.464, 0.457, 0.56, 0.03, 0.732, 0.524, 0.663, 0.465, 0.456, 0.525, 0.469, 0.462, 0.693, 0.597, 0.579, 0.878, 0.788, 0.884, 0.619, 0.662, 0.708, 0.586, 0.714, 0.455, 0.641, 0.796, 0.402, 0.451, 0.0852, 0.227, 0.0638, 0.852, 0.675, 0.906, 0.589, 0.933, 0.882, 0.635, 0.697, 0.903, 0.659, 0.863, 0.56, 0.738, 0.68, 0.966, 0.678, 0.807, 0.48, 0.62, 0.701, 0.942, 0.627, 0.637, 0.831, 0.555, 0.919, 0.649, 0.741, 0.473, 0.532, 0.541, 0.571, 0.864, 0.742, 0.789, 0.863, 0.62, 0.6, 0.664, 0.657, 0.84], 'energy_mean': 0.6118257933042213, 'energy_median': 0.63, 'energy_min': 0.00582, 'energy_max': 0.981, 'key': [9, 0, 9, 1, 0, 11, 4, 0, 8, 0, 7, 9, 0, 10, 1, 6, 0, 0, 10, 1, 6, 10, 1, 1, 7, 11, 1, 0, 1, 2, 6, 0, 0, 9, 0, 9, 11, 9, 6, 9, 8, 7, 8, 8, 0, 9, 11, 7, 4, 11, 9, 11, 2, 9, 9, 11, 7, 2, 11, 0, 6, 9, 1, 6, 11, 7, 1, 9, 7, 7, 3, 7, 6, 1, 1, 2, 6, 1, 9, 10, 11, 11, 9, 5, 5, 7, 1, 7, 0, 5, 2, 8, 10, 11, 0, 2, 5, 5, 8, 8, 8, 10, 3, 8, 2, 1, 11, 6, 9, 0, 11, 5, 2, 7, 7, 7, 1, 9, 2, 2, 11, 1, 9, 1, 4, 11, 8, 0, 6, 4, 7, 5, 0, 0, 0, 5, 9, 0, 7, 4, 10, 3, 6, 11, 7, 0, 7, 1, 11, 4, 9, 0, 5, 8, 5, 9, 7, 7, 10, 10, 8, 0, 0, 2, 6, 1, 2, 7, 7, 5, 2, 0, 1, 2, 5, 4, 4, 5, 9, 0, 0, 11, 2, 3, 0, 9, 11, 6, 5, 7, 11, 1, 11, 5, 11, 1, 1, 0, 9, 8, 7, 9, 10, 1, 2, 10, 7, 0, 8, 1, 1, 5, 9, 11, 0, 7, 9, 6, 2, 9, 1, 2, 7, 11, 10, 11, 0, 4, 4, 2, 1, 4, 7, 4, 4, 10, 6, 0, 8, 7, 0, 1, 11, 9, 10, 2, 10, 10, 4, 0, 3, 6, 6, 5, 4, 9, 2, 5, 1, 5, 1, 1, 8, 10, 5, 0, 10, 8, 0, 1, 1, 2, 2, 0, 3, 0, 0, 10, 9, 10, 6, 9, 8, 6, 2, 9, 5, 2, 2, 11, 2, 7, 7, 2, 5, 9, 6, 2, 6, 2, 2, 7, 2, 2, 4, 2, 1, 7, 8, 6, 2, 0, 8, 10, 6, 2, 9, 0, 8, 0, 7, 0, 1, 1, 9, 9, 10, 8, 7, 6, 7, 7, 8, 7, 9, 2, 5, 4, 9, 2, 3, 9, 5, 7, 1, 11, 0, 9, 9, 9, 11, 11, 7, 10, 1, 10, 7, 10, 10, 0, 2, 11, 11, 6, 11, 2, 1, 7, 4, 7, 5, 4, 11, 2, 7, 2, 5, 7, 0, 2, 10, 0, 5, 4, 1, 4, 3, 8, 8, 2, 1, 8, 11, 10, 10, 6, 8, 0, 11, 1, 0, 0, 7, 0, 5, 0, 9, 9, 0, 0, 10, 11, 5, 1, 2, 0, 1, 5, 6, 10, 5, 8, 3, 9, 9, 1, 0, 11, 9, 11, 8, 1, 10, 0, 1, 11, 3, 1, 8, 5, 6, 2, 0, 0, 7, 1, 2, 4, 9, 5, 4, 7, 7, 10, 11, 7, 7, 8, 10, 10, 6, 8, 4, 7, 2, 3, 7, 8, 7, 7, 8, 7, 9, 7, 8, 7, 6, 5, 6, 9, 10, 2, 9, 4, 1, 4, 0, 6, 2, 0, 6, 7, 8, 8, 3, 1, 5, 7, 5, 9, 3, 9, 3, 10, 7, 7, 2, 9, 0, 8, 11, 9, 2, 2, 8, 10, 5, 10, 8, 0, 1, 10, 2, 0, 5, 9, 10, 8, 10, 2, 7, 5, 4, 2, 4, 2, 2, 9, 7, 2, 7, 8, 4, 2, 7, 6, 4, 3, 0, 0, 6, 9, 8, 9, 9, 6, 7, 6, 6, 1, 6, 1, 9, 10, 10, 3, 7, 11, 10, 3, 0, 0, 5, 11, 3, 8, 4, 2, 9, 8, 7, 11, 8, 0, 0, 6, 4, 6, 11, 9, 10, 6, 6, 11, 4, 0, 5, 1, 5, 2, 7, 8, 3, 2, 0, 11, 11, 6, 8, 7, 2, 3, 9, 5, 6, 1, 2, 2, 10, 10, 7, 6, 9, 9, 6, 8, 10, 9, 2, 4, 7, 1, 4, 9, 4, 7, 10, 8, 8, 10, 6, 4, 10, 1, 0, 11, 7, 10, 1, 9, 2, 1, 7, 0, 10, 1, 11, 11, 7, 11, 10, 0, 1, 10, 1, 7, 6, 4, 11, 6, 9, 4, 10, 5, 11, 7, 1, 1, 5, 9, 2, 7, 1, 1, 0, 2, 8], 'key_min': 0, 'key_max': 11, 'key_mode': [7], 'loudness': [-8.87, -6.784, -18.141, -9.483, -7.85, -12.379, -11.103, -7.782, -6.166, -12.744, -9.524, -7.792, -5.072, -11.16, -5.325, -7.431, -10.395, -10.053, -5.581, -10.975, -10.417, -3.948, -2.653, -3.589, -3.929, -2.43, -3.311, -7.864, -10.568, -7.407, -9.449, -6.46, -5.427, -6.367, -6.76, -6.809, -7.066, -8.956, -7.628, -6.983, -3.933, -5.972, -4.46, -3.479, -4.679, -3.348, -4.11, -5.906, -4.269, -9.99, -5.796, -6.937, -9.991, -14.032, -6.653, -7.202, -6.504, -8.051, -5.045, -5.535, -5.07, -5.13, -8.342, -5.198, -3.915, -5.91, -5.866, -5.296, -6.422, -6.557, -14.192, -13.011, -6.452, -11.707, -6.345, -14.633, -10.132, -12.261, -8.623, -6.604, -13.427, -7.533, -7.806, -6.246, -7.913, -7.828, -8.836, -7.791, -10.701, -5.808, -3.363, -2.052, -2.955, -4.853, -4.298, -4.737, -6.099, -5.633, -6.786, -4.156, -4.576, -4.606, -5.06, -3.227, -6.158, -5.789, -4.11, -4.536, -6.463, -6.142, -9.829, -12.005, -5.611, -5.903, -6.908, -8.288, -6.565, -8.705, -6.475, -8.28, -5.765, -6.625, -4.404, -4.287, -4.568, -5.822, -5.236, -4.259, -5.374, -6.014, -6.487, -6.87, -5.427, -8.313, -4.907, -10.25, -3.45, -7.509, -5.879, -11.661, -13.788, -11.879, -12.363, -8.186, -9.513, -11.737, -11.283, -9.649, -13.149, -6.839, -8.787, -13.781, -12.037, -15.757, -13.451, -9.415, -17.767, -18.091, -9.511, -15.262, -6.42, -8.113, -6.438, -5.855, -9.733, -6.56, -7.426, -4.315, -6.762, -6.28, -10.389, -10.974, -9.451, -8.603, -11.927, -8.18, -9.007, -12.733, -10.733, -9.878, -6.385, -10.835, -6.237, -8.131, -5.952, -8.571, -6.017, -6.434, -5.165, -7.784, -9.919, -4.899, -5.624, -5.939, -6.418, -8.616, -7.26, -4.79, -7.932, -3.25, -6.907, -6.052, -7.702, -8.203, -5.39, -7.518, -6.182, -5.24, -6.547, -9.16, -7.811, -7.895, -6.624, -11.028, -8.441, -11.446, -5.179, -12.269, -10.304, -11.081, -4.626, -5.957, -6.42, -5.541, -5.932, -5.977, -5.546, -6.751, -7.263, -4.714, -13.483, -10.219, -9.53, -12.424, -12.324, -9.418, -7.401, -11.722, -12.455, -8.674, -9.206, -7.007, -6.602, -9.942, -13.984, -7.856, -11.555, -9.238, -9.885, -13.768, -7.927, -5.247, -4.463, -7.75, -14.037, -9.601, -8.646, -13.51, -10.263, -9.798, -7.557, -7.496, -8.576, -8.093, -7.711, -7.813, -9.804, -8.17, -1.828, -5.557, -3.872, -4.855, -5.127, -4.962, -4.936, -4.667, -3.339, -6.399, -3.981, -5.709, -6.795, -5.213, -9.181, -7.865, -8.326, -7.967, -8.826, -8.503, -16.465, -7.189, -13.957, -8.052, -13.088, -11.085, -14.094, -11.398, -10.153, -15.286, -7.442, -13.338, -8.514, -8.325, -8.628, -8.96, -10.017, -7.857, -6.67, -11.14, -7.546, -8.668, -9.794, -5.399, -9.869, -9.59, -9.709, -10.156, -9.983, -8.706, -7.646, -10.875, -12.726, -8.537, -9.574, -9.141, -9.992, -12.418, -11.217, -10.619, -11.54, -6.999, -4.577, -5.347, -5.247, -3.929, -5.024, -5.818, -4.595, -3.342, -6.116, -1.403, -7.84, -8.392, -8.363, -10.64, -8.116, -6.104, -8.991, -8.593, -11.992, -10.111, -9.405, -10.11, -11.248, -11.359, -8.167, -12.379, -15.017, -7.447, -13.598, -11.275, -8.533, -8.751, -8.338, -14.963, -6.745, -5.595, -5.715, -11.901, -10.664, -8.871, -11.055, -6.968, -9.502, -8.309, -7.676, -9.791, -12.804, -5.022, -7.202, -10.195, -11.772, -10.445, -11.153, -7.149, -8.727, -10.519, -10.991, -6.945, -8.573, -9.534, -6.086, -8.493, -3.849, -6.545, -8.719, -7.653, -5.339, -4.504, -5.288, -7.055, -8.427, -12.139, -9.198, -10.19, -14.561, -15.054, -10.27, -10.785, -23.833, -10.856, -8.559, -8.577, -13.479, -9.095, -9.258, -29.481, -8.714, -11.18, -6.412, -6.344, -7.986, -9.599, -5.487, -5.275, -6.361, -6.257, -6.592, -11.64, -4.847, -9.008, -6.216, -8.733, -10.078, -10.8, -9.125, -12.186, -7.533, -6.922, -6.924, -9.775, -4.06, -4.317, -5.286, -4.192, -8.222, -6.272, -5.802, -4.741, -4.494, -11.175, -16.545, -35.055, -17.954, -24.235, -29.223, -12.115, -23.294, -13.899, -13.248, -27.763, -6.928, -13.171, -10.276, -11.841, -9.324, -17.901, -11.633, -10.867, -10.414, -12.524, -8.036, -20.958, -8.528, -10.853, -8.367, -8.766, -5.734, -15.073, -10.838, -12.389, -7.518, -9.931, -8.326, -7.754, -7.401, -11.705, -9.065, -13.437, -8.388, -8.952, -7.569, -18.121, -8.098, -10.806, -8.115, -7.626, -9.221, -6.333, -7.791, -9.686, -8.012, -6.545, -7.417, -10.956, -10.329, -10.182, -13.075, -12.325, -11.175, -11.42, -7.841, -8.538, -11.437, -11.496, -9.7, -8.539, -9.267, -8.746, -7.823, -7.538, -9.529, -9.077, -12.133, -12.802, -3.922, -6.334, -4.486, -6.437, -12.265, -9.684, -3.292, -11.295, -10.64, -11.696, -12.426, -12.495, -9.258, -7.516, -8.876, -12.92, -8.164, -12.292, -12.004, -8.823, -12.79, -5.986, -13.321, -5.325, -9.35, -5.995, -6.203, -16.119, -17.565, -16.62, -10.572, -9.314, -9.865, -10.435, -8.291, -16.375, -9.579, -9.861, -14.497, -11.868, -4.502, -6.326, -5.914, -5.953, -7.797, -6.856, -7.275, -7.288, -6.609, -7.652, -11.066, -11.18, -10.281, -14.804, -10.026, -10.23, -10.584, -11.687, -9.15, -17.119, -6.668, -8.148, -6.913, -9.517, -5.28, -6.434, -7.49, -4.663, -8.011, -6.792, -9.849, -11.275, -10.271, -10.118, -9.647, -10.18, -12.79, -11.764, -12.699, -7.554, -8.576, -10.486, -8.75, -20.092, -12.341, -7.011, -11.886, -14.899, -10.597, -9.574, -8.698, -14.695, -11.408, -8.118, -20.673, -11.733, -13.02, -12.929, -11.226, -18.616, -8.85, -10.626, -10.979, -7.314, -9.816, -12.593, -6.521, -7.4, -8.307, -10.698, -8.662, -10.722, -8.298, -11.18, -17.433, -9.953, -10.934, -13.855, -14.736, -23.334, -20.255, -16.388, -10.83, -8.133, -3.78, -7.488, -5.73, -7.296, -10.06, -12.127, -4.757, -7.855, -10.125, -8.788, -10.876, -9.376, -6.795, -6.759, -10.399, -11.111, -13.549, -10.039, -11.916, -10.84, -10.626, -7.082, -9.918, -6.435, -12.21, -10.923, -12.702, -14.07, -11.334, -9.189, -2.618, -4.851, -3.516, -7.488, -6.531, -5.26, -5.251, -4.718, -3.794], 'loudness_mean': -8.97439155749636, 'loudness_median': -8.533, 'loudness_min': -35.055, 'loudness_max': -1.403, 'mode': [0, 1, 1, 1, 0, 0, 1, 0, 1, 1, 1, 1, 0, 0, 0, 1, 1, 1, 1, 0, 0, 0, 0, 0, 1, 1, 1, 1, 1, 1, 0, 1, 1, 0, 1, 1, 1, 1, 1, 0, 0, 1, 0, 0, 1, 1, 1, 1, 1, 0, 0, 0, 1, 0, 0, 0, 1, 1, 0, 0, 0, 1, 1, 0, 1, 0, 1, 0, 1, 1, 1, 0, 1, 1, 0, 1, 1, 0, 0, 0, 0, 0, 0, 0, 0, 1, 0, 1, 0, 0, 1, 1, 0, 1, 1, 1, 0, 0, 1, 1, 1, 0, 0, 0, 0, 1, 0, 0, 0, 1, 1, 1, 1, 1, 1, 0, 1, 1, 1, 1, 1, 0, 1, 1, 1, 0, 1, 0, 1, 0, 1, 1, 1, 1, 1, 1, 1, 1, 0, 1, 1, 0, 1, 1, 0, 1, 0, 1, 1, 0, 0, 1, 1, 1, 1, 1, 1, 0, 1, 1, 1, 1, 1, 1, 0, 1, 1, 1, 1, 0, 1, 1, 1, 1, 0, 0, 0, 1, 1, 1, 0, 0, 0, 0, 0, 0, 1, 1, 0, 1, 0, 1, 1, 0, 0, 1, 1, 1, 1, 1, 0, 0, 0, 1, 0, 0, 0, 0, 0, 1, 0, 1, 0, 0, 1, 1, 1, 0, 0, 1, 0, 1, 1, 1, 0, 1, 1, 1, 1, 1, 0, 0, 1, 0, 0, 0, 0, 0, 1, 0, 1, 0, 1, 1, 0, 0, 0, 0, 0, 1, 1, 1, 1, 1, 1, 1, 1, 1, 1, 0, 1, 1, 1, 1, 1, 1, 1, 1, 1, 1, 1, 1, 0, 1, 0, 1, 1, 0, 1, 0, 0, 0, 0, 0, 1, 0, 0, 0, 1, 0, 0, 1, 1, 1, 1, 1, 1, 1, 0, 1, 1, 1, 1, 1, 0, 0, 1, 1, 1, 0, 1, 0, 0, 0, 0, 0, 0, 0, 1, 0, 0, 1, 1, 1, 0, 1, 0, 0, 1, 1, 1, 1, 1, 1, 1, 1, 1, 0, 1, 1, 0, 1, 0, 1, 1, 1, 1, 0, 1, 0, 0, 0, 1, 0, 0, 0, 1, 0, 0, 1, 1, 0, 0, 1, 0, 0, 1, 1, 0, 1, 1, 1, 0, 1, 1, 1, 0, 0, 1, 0, 1, 0, 0, 1, 1, 0, 0, 1, 1, 0, 0, 1, 0, 1, 0, 1, 1, 1, 0, 0, 1, 1, 1, 1, 1, 1, 0, 0, 1, 1, 1, 1, 0, 1, 1, 1, 1, 1, 0, 0, 0, 0, 1, 0, 1, 0, 0, 0, 0, 0, 0, 0, 0, 0, 1, 1, 1, 1, 0, 0, 0, 1, 1, 1, 0, 0, 0, 1, 1, 1, 0, 0, 0, 1, 1, 0, 0, 0, 1, 0, 0, 0, 0, 1, 1, 1, 1, 1, 1, 1, 1, 1, 1, 1, 0, 1, 0, 0, 1, 0, 0, 1, 0, 0, 1, 0, 1, 1, 1, 1, 0, 0, 0, 1, 0, 1, 0, 1, 0, 1, 0, 0, 0, 1, 1, 0, 0, 1, 0, 1, 0, 0, 1, 0, 0, 1, 1, 1, 0, 0, 0, 0, 0, 1, 0, 1, 0, 0, 0, 0, 1, 0, 0, 1, 0, 1, 1, 0, 1, 1, 1, 1, 0, 1, 1, 1, 1, 1, 1, 1, 1, 1, 1, 0, 0, 1, 1, 1, 0, 0, 1, 1, 0, 0, 1, 1, 1, 1, 1, 1, 1, 1, 1, 1, 1, 1, 0, 1, 1, 1, 0, 1, 1, 0, 1, 1, 0, 0, 0, 1, 1, 1, 1, 0, 1, 0, 1, 1, 0, 0, 1, 1, 1, 1, 1, 0, 0, 1, 0, 1, 0, 0, 0, 0, 1, 0, 1, 1, 0, 0, 1, 0, 0, 1, 1, 1, 0, 0, 1, 0, 1, 1, 0, 0, 0, 1, 0, 1, 0, 0, 1, 0, 1, 1, 1, 1, 1, 0, 1, 1, 0, 0, 1, 1, 1, 1, 0, 0, 1, 0, 0, 1, 0, 0, 1, 1, 1, 0, 1, 0, 0, 0, 0, 1, 1, 1, 0, 1, 0, 1, 1, 1, 0, 1, 1, 1, 1], 'mode_min': 0, 'mode_max': 1, 'mode_mode': [1], 'speechiness': [0.0278, 0.0348, 0.0428, 0.0398, 0.0373, 0.0309, 0.0712, 0.0304, 0.0465, 0.0299, 0.139, 0.0982, 0.158, 0.111, 0.0555, 0.102, 0.0506, 0.0481, 0.0568, 0.263, 0.12, 0.0351, 0.0556, 0.0406, 0.0283, 0.0744, 0.0288, 0.0764, 0.058, 0.0582, 0.107, 0.0377, 0.0415, 0.0445, 0.0475, 0.0402, 0.0354, 0.0505, 0.0339, 0.0312, 0.0845, 0.0619, 0.0296, 0.0677, 0.131, 0.0687, 0.106, 0.0269, 0.108, 0.052, 0.0428, 0.0482, 0.0389, 0.0472, 0.0282, 0.0305, 0.0416, 0.0328, 0.0381, 0.032, 0.278, 0.384, 0.0303, 0.0623, 0.177, 0.0278, 0.037, 0.0345, 0.125, 0.0439, 0.0581, 0.0325, 0.0347, 0.0349, 0.056, 0.0367, 0.0262, 0.0933, 0.0322, 0.0414, 0.0447, 0.0607, 0.0309, 0.0349, 0.107, 0.0885, 0.0248, 0.0296, 0.0391, 0.037, 0.068, 0.0374, 0.0393, 0.0565, 0.136, 0.0351, 0.0889, 0.038, 0.193, 0.0347, 0.263, 0.273, 0.0688, 0.19, 0.0355, 0.0993, 0.0932, 0.0776, 0.0891, 0.285, 0.0622, 0.0352, 0.0425, 0.0325, 0.0501, 0.0457, 0.0287, 0.0398, 0.0442, 0.0566, 0.0433, 0.0461, 0.116, 0.054, 0.0804, 0.0446, 0.0735, 0.0557, 0.179, 0.0446, 0.0353, 0.027, 0.0341, 0.0283, 0.0409, 0.0278, 0.0286, 0.0272, 0.0512, 0.0397, 0.0344, 0.0535, 0.0451, 0.137, 0.113, 0.0399, 0.0517, 0.205, 0.0748, 0.17, 0.168, 0.0518, 0.0339, 0.0683, 0.195, 0.0456, 0.0635, 0.0656, 0.0522, 0.13, 0.0326, 0.0906, 0.0345, 0.442, 0.11, 0.0358, 0.0361, 0.0604, 0.286, 0.292, 0.0361, 0.0309, 0.116, 0.043, 0.0381, 0.0628, 0.0429, 0.038, 0.0508, 0.0448, 0.0451, 0.056, 0.191, 0.0395, 0.0305, 0.384, 0.0446, 0.177, 0.0407, 0.291, 0.22, 0.3, 0.406, 0.174, 0.228, 0.198, 0.33, 0.418, 0.313, 0.327, 0.0341, 0.0328, 0.0549, 0.0504, 0.0481, 0.04, 0.0291, 0.0289, 0.0366, 0.0334, 0.0597, 0.195, 0.0921, 0.289, 0.0802, 0.0732, 0.123, 0.234, 0.0682, 0.0468, 0.0335, 0.0344, 0.0526, 0.0577, 0.0319, 0.0588, 0.0492, 0.0445, 0.0678, 0.0446, 0.0576, 0.0405, 0.0477, 0.315, 0.0709, 0.0925, 0.148, 0.0657, 0.237, 0.0369, 0.0432, 0.033, 0.0466, 0.0421, 0.0363, 0.0861, 0.029, 0.056, 0.0407, 0.0457, 0.0544, 0.0596, 0.0579, 0.0458, 0.053, 0.101, 0.0336, 0.101, 0.22, 0.26, 0.366, 0.266, 0.238, 0.0488, 0.0743, 0.181, 0.033, 0.184, 0.0345, 0.0561, 0.139, 0.0677, 0.0459, 0.167, 0.0586, 0.036, 0.301, 0.0405, 0.0575, 0.069, 0.0528, 0.095, 0.0441, 0.0378, 0.0585, 0.0431, 0.035, 0.0335, 0.0393, 0.0374, 0.0285, 0.0584, 0.0627, 0.0476, 0.0742, 0.0385, 0.0423, 0.0306, 0.0462, 0.0305, 0.0353, 0.0431, 0.0423, 0.034, 0.0351, 0.0269, 0.0333, 0.0656, 0.038, 0.0322, 0.0622, 0.0317, 0.0633, 0.0373, 0.035, 0.0564, 0.0373, 0.0305, 0.0479, 0.0339, 0.0354, 0.0516, 0.0967, 0.048, 0.0598, 0.201, 0.0489, 0.235, 0.0714, 0.0496, 0.151, 0.147, 0.0354, 0.15, 0.0707, 0.092, 0.0489, 0.0803, 0.0558, 0.0395, 0.0332, 0.041, 0.0449, 0.0348, 0.0352, 0.0366, 0.0347, 0.0348, 0.15, 0.0367, 0.0384, 0.0991, 0.0384, 0.0737, 0.0786, 0.0782, 0.0649, 0.0659, 0.0663, 0.0782, 0.0397, 0.0334, 0.0328, 0.0374, 0.0407, 0.0478, 0.0453, 0.0835, 0.0577, 0.0791, 0.036, 0.0577, 0.0476, 0.0553, 0.0579, 0.0369, 0.0399, 0.0643, 0.0397, 0.0631, 0.0654, 0.123, 0.0594, 0.0596, 0.0325, 0.0877, 0.0346, 0.0648, 0.0711, 0.0828, 0.0812, 0.0665, 0.114, 0.0334, 0.0631, 0.0331, 0.0279, 0.0597, 0.0758, 0.126, 0.0564, 0.0377, 0.0366, 0.0474, 0.034, 0.0362, 0.0332, 0.037, 0.0438, 0.0389, 0.0371, 0.0552, 0.0341, 0.0644, 0.0353, 0.048, 0.0424, 0.0425, 0.0441, 0.0394, 0.0484, 0.0511, 0.054, 0.038, 0.0422, 0.0731, 0.0534, 0.115, 0.0656, 0.0509, 0.0413, 0.0444, 0.0319, 0.0442, 0.0395, 0.0413, 0.0562, 0.0521, 0.04, 0.0279, 0.255, 0.131, 0.0842, 0.053, 0.0352, 0.212, 0.0487, 0.116, 0.246, 0.142, 0.0362, 0.0628, 0.0381, 0.0379, 0.0372, 0.0356, 0.0408, 0.0319, 0.0302, 0.0516, 0.0506, 0.0351, 0.072, 0.0835, 0.0914, 0.0324, 0.121, 0.0647, 0.108, 0.315, 0.0474, 0.0421, 0.0441, 0.0511, 0.0547, 0.0531, 0.0585, 0.0394, 0.0478, 0.0342, 0.04, 0.031, 0.0406, 0.0408, 0.0291, 0.049, 0.0366, 0.0357, 0.0386, 0.0389, 0.205, 0.0518, 0.405, 0.0694, 0.0444, 0.0305, 0.0726, 0.0522, 0.0298, 0.0538, 0.0503, 0.0708, 0.0503, 0.203, 0.0601, 0.0492, 0.0421, 0.0678, 0.0522, 0.0699, 0.0859, 0.051, 0.0566, 0.101, 0.0238, 0.0295, 0.0417, 0.0332, 0.0466, 0.0476, 0.0456, 0.0443, 0.0356, 0.0332, 0.304, 0.198, 0.177, 0.469, 0.428, 0.233, 0.21, 0.433, 0.553, 0.435, 0.0361, 0.0587, 0.0353, 0.0445, 0.0308, 0.041, 0.062, 0.0487, 0.0705, 0.0306, 0.0625, 0.0685, 0.0388, 0.0293, 0.0307, 0.0382, 0.0665, 0.0336, 0.0494, 0.0333, 0.0606, 0.0591, 0.0407, 0.0516, 0.0841, 0.155, 0.055, 0.0642, 0.0439, 0.124, 0.0823, 0.041, 0.0588, 0.057, 0.0499, 0.0364, 0.0421, 0.0492, 0.0399, 0.0435, 0.0593, 0.0433, 0.135, 0.0384, 0.0481, 0.0585, 0.0391, 0.105, 0.0514, 0.037, 0.0475, 0.0496, 0.0436, 0.0504, 0.0527, 0.0317, 0.0377, 0.051, 0.0505, 0.0341, 0.0374, 0.0698, 0.03, 0.0351, 0.104, 0.0264, 0.0399, 0.087, 0.0339, 0.062, 0.0678, 0.062, 0.0551, 0.0566, 0.0575, 0.134, 0.0546, 0.057, 0.164, 0.0483, 0.051, 0.0407, 0.0342, 0.0291, 0.0344, 0.0374, 0.0431, 0.0534, 0.0375, 0.0326, 0.104, 0.0648, 0.274, 0.0509, 0.037, 0.0614, 0.17, 0.0583, 0.0483, 0.0428, 0.0356, 0.0316, 0.0397, 0.0433, 0.0472, 0.0583, 0.0634, 0.245, 0.216, 0.17, 0.541, 0.0419, 0.065, 0.176, 0.0921, 0.196, 0.0343, 0.0864, 0.0741, 0.147, 0.0384, 0.299, 0.0744, 0.048, 0.0364, 0.0648, 0.0481, 0.0906, 0.0506, 0.0636, 0.0953, 0.0421, 0.0489, 0.117, 0.0332, 0.0418, 0.0867, 0.0767, 0.0558, 0.128, 0.0586, 0.0654, 0.0693, 0.0329, 0.0341, 0.0334, 0.0315, 0.0286, 0.0271, 0.0265, 0.0383, 0.0313, 0.0342], 'speechines_mean': 0.07732983988355167, 'speechiness_median': 0.0494, 'speechines_min': 0.0238, 'speechines_max': 0.553, 'acousticness': [0.46, 0.0522, 0.95, 0.623, 0.302, 0.818, 0.749, 0.296, 0.00224, 0.902, 0.112, 0.0162, 0.261, 0.923, 0.00289, 0.159, 0.225, 0.261, 0.252, 0.0316, 0.0325, 0.0117, 0.00458, 0.000745, 0.00907, 0.00108, 0.0018, 0.303, 0.612, 0.243, 0.0492, 0.0349, 0.0588, 0.0625, 0.034, 0.00426, 0.0253, 0.022, 0.0298, 0.000449, 0.00743, 0.000803, 0.000187, 0.00389, 0.00351, 0.0223, 0.00113, 0.00116, 0.000179, 0.115, 0.0234, 0.288, 0.678, 0.475, 0.163, 0.365, 0.158, 0.931, 0.000259, 0.0751, 0.034, 0.0168, 0.12, 7.79e-05, 0.0479, 0.000664, 0.075, 0.00145, 0.00231, 0.0166, 0.619, 0.0249, 0.00906, 0.0313, 0.405, 0.0452, 0.0644, 5.88e-05, 0.898, 0.117, 0.729, 0.339, 0.103, 0.0168, 0.555, 0.122, 0.012, 0.23, 0.273, 0.541, 0.336, 0.165, 0.00988, 0.123, 0.12, 0.0334, 0.00823, 0.208, 0.164, 0.00784, 0.316, 0.0229, 0.0108, 0.0505, 0.19, 0.149, 0.0149, 0.00932, 0.361, 0.0132, 0.00557, 0.0192, 0.148, 0.0418, 0.0196, 0.474, 0.00215, 0.0462, 9.62e-05, 0.0678, 0.0133, 0.00889, 0.00883, 0.00553, 0.000199, 0.128, 0.00429, 0.00552, 0.0499, 0.000492, 0.0956, 0.223, 0.0168, 0.55, 0.209, 0.834, 0.0533, 0.285, 0.191, 0.812, 0.976, 0.735, 0.467, 0.122, 0.616, 0.229, 0.388, 0.445, 0.91, 0.291, 0.933, 0.941, 0.931, 0.891, 0.76, 0.957, 0.988, 0.972, 0.983, 0.781, 0.36, 0.323, 0.593, 0.276, 0.33, 0.13, 0.0926, 0.00866, 0.0427, 0.842, 0.605, 0.889, 0.876, 0.483, 0.812, 0.619, 0.602, 0.342, 0.823, 0.902, 0.523, 0.473, 0.104, 0.132, 0.454, 0.373, 0.266, 0.228, 5.74e-05, 0.346, 0.12, 0.104, 0.0391, 0.416, 0.187, 0.0673, 0.307, 0.325, 0.133, 0.662, 0.00542, 0.00388, 0.0879, 0.0154, 0.0194, 0.0583, 0.0215, 0.252, 0.000816, 0.0182, 0.364, 0.0684, 0.42, 0.205, 0.0957, 0.391, 0.12, 0.711, 0.361, 0.706, 0.185, 0.0875, 0.121, 0.00717, 0.247, 0.0422, 0.0702, 0.277, 0.000278, 0.131, 0.255, 0.795, 0.634, 0.339, 0.702, 0.63, 0.313, 0.411, 0.518, 0.974, 0.241, 0.091, 0.0426, 0.0492, 0.755, 0.399, 0.819, 0.13, 0.354, 0.566, 0.217, 0.395, 0.646, 0.592, 0.653, 0.905, 0.244, 0.891, 0.807, 0.78, 0.174, 0.7, 0.684, 0.675, 0.702, 0.212, 0.74, 0.462, 0.0014, 0.0661, 0.346, 0.0743, 0.184, 0.0893, 0.0254, 0.112, 0.175, 0.00247, 0.361, 0.0965, 0.62, 0.393, 0.7, 0.312, 0.526, 0.494, 0.366, 0.312, 0.941, 0.00399, 0.707, 0.000938, 0.043, 0.0153, 0.483, 0.0177, 0.00911, 0.453, 0.00272, 0.563, 0.184, 0.559, 0.0317, 0.32, 0.321, 0.457, 0.0425, 0.677, 0.463, 0.526, 0.0515, 0.00233, 0.448, 0.0344, 0.0119, 0.248, 0.00297, 0.025, 0.0986, 0.325, 0.00584, 0.0158, 0.0448, 0.0222, 0.16, 0.0623, 0.0722, 0.0843, 0.0351, 0.11, 0.262, 0.147, 0.0141, 0.23, 0.0553, 0.0125, 0.585, 0.232, 0.184, 0.024, 0.182, 0.588, 0.25, 0.716, 0.0144, 0.531, 0.718, 0.281, 0.56, 0.43, 0.0787, 0.000246, 0.0295, 0.0178, 0.045, 0.00199, 0.0032, 0.012, 0.000766, 0.0042, 0.000174, 0.000937, 0.0603, 0.283, 0.00147, 0.184, 0.00623, 0.0844, 0.00469, 0.000828, 0.788, 0.415, 0.109, 0.00404, 0.00103, 0.755, 0.554, 0.0226, 0.000278, 0.348, 0.25, 0.838, 0.444, 0.324, 0.556, 0.427, 0.334, 0.0483, 0.0353, 0.663, 0.104, 0.621, 0.174, 0.0501, 0.129, 0.171, 0.00575, 0.0411, 0.103, 0.0627, 0.00136, 0.00259, 0.000629, 0.00728, 0.118, 0.547, 0.0062, 0.0027, 0.427, 0.000941, 0.0213, 0.000941, 0.176, 0.00157, 0.407, 0.886, 0.648, 0.00733, 0.000173, 4.54e-05, 0.291, 0.343, 0.366, 0.128, 0.273, 0.491, 0.00149, 0.891, 0.485, 0.251, 0.000746, 0.0115, 0.0416, 0.0939, 0.0707, 0.0367, 0.2, 0.00161, 0.00104, 0.0947, 0.0235, 0.132, 0.042, 0.019, 0.303, 0.0387, 0.0155, 0.0877, 0.0175, 0.635, 0.779, 0.983, 0.211, 0.984, 0.98, 0.597, 0.909, 0.219, 0.305, 0.987, 0.017, 0.611, 0.0158, 0.00314, 0.062, 0.774, 0.248, 0.00964, 0.00784, 0.415, 0.00298, 0.994, 0.225, 0.000435, 0.101, 0.0744, 0.0531, 0.685, 0.000799, 0.00674, 0.0583, 0.449, 0.68, 0.481, 0.0142, 0.369, 0.0248, 0.476, 0.00583, 0.0719, 0.344, 0.909, 0.841, 0.261, 0.00193, 0.0805, 0.0351, 3.85e-05, 0.0174, 0.0176, 0.00174, 0.00892, 0.000831, 0.0211, 0.112, 0.0343, 0.959, 0.0159, 0.695, 0.00198, 0.0053, 0.669, 0.0222, 0.618, 0.503, 0.02, 0.0289, 0.00774, 0.129, 0.28, 0.316, 0.399, 0.292, 0.803, 0.291, 0.875, 0.126, 0.561, 0.181, 0.188, 0.574, 0.276, 0.319, 0.378, 0.0189, 0.00593, 0.407, 0.0755, 0.0245, 0.08, 0.00247, 0.0131, 0.00295, 0.0309, 0.676, 0.00333, 0.541, 0.29, 0.567, 0.11, 0.00617, 0.958, 0.983, 0.836, 0.0197, 6.81e-05, 2.31e-05, 2.83e-05, 0.00619, 7.99e-05, 0.0162, 0.0032, 0.00124, 0.000552, 0.192, 0.0136, 0.271, 0.00414, 0.000533, 0.00564, 0.0139, 0.0231, 0.0591, 0.022, 0.853, 0.00298, 0.0185, 0.00517, 0.574, 0.112, 0.00803, 0.0023, 0.0391, 0.988, 4.69e-05, 0.0542, 0.000473, 0.00214, 0.00356, 2.03e-05, 0.00176, 0.000525, 0.012, 0.00366, 0.623, 0.8, 0.692, 0.0511, 0.404, 0.808, 0.54, 0.682, 0.661, 0.621, 0.00388, 0.318, 0.00352, 0.368, 0.514, 0.336, 0.752, 0.298, 0.00938, 0.0436, 2.48e-05, 0.303, 0.00342, 8.29e-05, 0.857, 0.332, 0.0462, 0.0788, 7.98e-05, 0.035, 0.00524, 0.0717, 0.272, 0.0209, 0.0277, 0.00244, 0.0017, 0.023, 0.000411, 0.0023, 0.000196, 0.00117, 0.000405, 0.00298, 0.0764, 0.00103, 0.506, 0.00869, 0.929, 0.985, 0.654, 0.948, 0.0199, 0.175, 0.126, 0.0132, 0.00216, 0.226, 0.00322, 0.0856, 0.00986, 0.0399, 0.0671, 0.00434, 0.000204, 0.00093, 0.00319, 0.00761, 0.000106, 7.51e-05, 0.113, 0.000544, 0.000169, 0.0269, 0.000965, 0.0192, 0.00779, 0.000136, 0.318, 0.626, 0.744, 0.732, 0.000162, 0.0382, 0.000134, 0.0015, 0.000437, 0.104, 0.0568, 0.0686, 0.0472, 0.0224, 0.0398], 'acousticness_mean': 0.24716640232896653, 'acousticness_median': 0.104, 'acousticness_min': 2.03e-05, 'acousticness_max': 0.994, 'instrumentalness': [0.907, 0.192, 0.0593, 0.0706, 0.842, 0.374, 0.183, 6.41e-05, 0.00224, 0.83, 0, 1.23e-05, 0, ;;;;;;;;;;;;;;;;;;;;;;;
, 3.04e-05, 0, 2.72e-05, 0.0116, 2.86e-06, 0.0106, 0.000116, 0.0202, 0.12, 0.0175, 0, 0.0316, 0.00601, 0.0082, 0.477, 0.0191, 0.00607, 0.00767, 4.71e-05, 0.000133, 0.00938, 0.0949, 0.000433, 7.43e-06, 0.0172, 0.00786, 0.315, 0.201, 0.0939, 0.352, 0.0142, 5.54e-06, 0.313, 0.595, 0.00862, 0.339, 0.0019, 1.73e-06, 1.8e-06, 0.00153, 5.96e-06, 0.0038, 0.00161, 0, 0.156, 0.00226, 0, 0.366, 0.073, 0.139, 0.0981, 0, 0.000106, 0, 0.766, 0.00039, 0, 0.00128, 7.22e-05, 0.00383, 7.91e-05, 0.0229, 0.124, 0.0122, 4.47e-05, 0, 3.79e-05, 0.000102, 0.00161, 0.145, 1.94e-05, 0.00129, 0.0245, 0.00419, 0.000545, 0.196, 0, 0, 0.00625, 0, 0, 1.48e-06, 0, 8.28e-05, 0.00194, 0.0173, 0.000384, 0.0641, 0.00157, 0, 0.0474, 0.00037, 0.00302, 0.864, 0.0063, 0.2, 0.725, 0.653, 0.625, 0.00374, 0.000525, 0.00013, 0.00178, 0.131, 0.00411, 0.00509, 0.00016, 0.0962, 0.0229, 0.00096, 0.546, 0.000385, 1.53e-05, 1.51e-06, 8.66e-06, 6.22e-06, 0.0196, 0, 0.00187, 0.0586, 0, 0.000554, 0.141, 0.000604, 8.4e-06, 0, 0.00186, 0.00216, 0.000108, 0.0142, 0.00165, 0.375, 0.00407, 0.00132, 8.84e-06, 0.00773, 0.743, 0.907, 0.913, 0.819, 0.892, 0.707, 0.888, 0.0739, 0.911, 0.881, 0.00606, 0.000931, 0.0121, 5.47e-06, 2.01e-05, 1.43e-06, 0.000762, 0.000218, 0.00146, 8.99e-05, 0.755, 0.0576, 0.369, 0.442, 0.0534, 0.0342, 0.0134, 0.651, 0.00413, 0.00689, 0.723, 0.0242, 0.000727, 0.946, 0.000664, 0.000123, 0.839, 9.09e-06, 0.819, 5.67e-06, 0, 0, 0, 0, 0, 0, 0, 0, 0, 0, 0.000218, 0.000656, 0.704, 0.0142, 0.128, 0.0357, 0.781, 0.164, 0.846, 0.108, 2.07e-05, 0.00209, 0.0346, 0.000748, 0.414, 0.0161, 0.00113, 0.0373, 0.922, 0.139, 0.804, 0.298, 0.773, 0.821, 0.896, 0.783, 0.714, 0.273, 0.00544, 0.914, 1.9e-05, 0, 3.1e-06, 0.00024, 0.000215, 0.000157, 0.0184, 1.92e-05, 1.88e-06, 4.27e-06, 1.11e-06, 0, 8.25e-05, 0, 0.423, 0, 1.88e-05, 0.0113, 0.000116, 0, 0.00474, 0, 0.00352, 0, 0, 0, 0.000168, 0, 0, 3e-06, 0.764, 0.0112, 0.0013, 0.968, 0.0603, 0.0383, 0.0108, 0.529, 0.359, 0.138, 1.28e-05, 4.01e-05, 2.27e-06, 4.05e-05, 0.000201, 0.149, 0, 0.0478, 1.63e-06, 0.000329, 0.000133, 0.379, 0.798, 0.905, 0.912, 0.109, 0.878, 0.898, 0.92, 0.515, 0.829, 0.815, 0.655, 0.893, 0.87, 0.88, 0.884, 0.902, 0.884, 0.894, 0.878, 0.224, 0.897, 0.855, 0.899, 0.864, 0.916, 0.73, 0.825, 0.719, 5.72e-05, 6.17e-05, 0.0551, 0.503, 0.00426, 0.00132, 0.577, 0.000116, 0.0014, 0.0049, 0.0415, 0.802, 0.00518, 0.0363, 0.202, 0.000461, 0.112, 0.0116, 0.0517, 0.197, 0.000114, 0.000375, 0.0168, 1.95e-05, 9.16e-06, 0.00739, 0.124, 0.000118, 0.369, 0.0145, 0.00211, 0.0106, 0.0148, 0.0085, 0.0177, 0.00186, 4.12e-05, 0.000234, 0.697, 0, 0.599, 0.911, 0.899, 0.941, 0.876, 0.818, 0.873, 0.907, 0.933, 0.823, 0.499, 0.0134, 0.745, 0.888, 0.918, 0.812, 0.896, 0.378, 0.891, 0.767, 0.0406, 0.00991, 0.000581, 0.00307, 0.021, 1.91e-05, 0.0999, 4.3e-05, 0.0515, 0.00413, 0.0284, 0.0112, 0.365, 0.292, 0.0558, 0.0352, 0.279, 0.0133, 0.000732, 0.0392, 0.0014, 0.338, 0, 3.08e-06, 0.0466, 0.000434, 0.48, 4.8e-05, 7.68e-05, 0.0327, 0.933, 0.886, 0.886, 0.854, 0.409, 0.855, 0.775, 0.936, 0.802, 0.848, 0.873, 0.832, 0.465, 0.67, 0.808, 0.921, 0.924, 0.665, 0.725, 0.897, 0.00126, 0.0548, 0.00156, 0.485, 0.0107, 0.252, 0.229, 0.0322, 0.095, 0.574, 0.0644, 0.655, 0.924, 0.849, 0.924, 0.849, 0.634, 0.927, 0.485, 0.941, 0, 0.00117, 0.000655, 9.65e-05, 0.00383, 9.89e-05, 0.00748, 0.000122, 0, 0, 0.902, 0.94, 0.872, 0.961, 0.872, 0.96, 0.858, 0.909, 0.915, 0.928, 0.00353, 0.0917, 0.031, 0.197, 0.0356, 0.0205, 0.399, 0.0354, 0.0416, 2.89e-05, 0.773, 0.916, 0.472, 0.883, 0.885, 0.884, 0.311, 0.943, 0.894, 0.839, 0.0357, 0.193, 8.5e-06, 1.17e-05, 0.0454, 0.024, 0.00401, 0.000349, 0.0165, 0.0439, 0, 0.903, 0.000374, 0.0429, 0.904, 0.00121, 0.878, 0.859, 0.775, 0.841, 0.846, 0.775, 0.902, 5.82e-06, 0.893, 0.355, 0.929, 0.934, 0.877, 0.665, 0.821, 0.105, 0.702, 0.787, 0.234, 0.123, 0.17, 0.0116, 0.249, 0.0798, 0.234, 0.0108, 0.345, 0.502, 0, 0.069, 0.011, 0, 2.77e-05, 0.00924, 0, 0, 0, 0, 0.761, 0.9, 0.808, 0.0493, 0.837, 0.877, 0.903, 0.89, 0.519, 0.819, 0.464, 0.0515, 0.00705, 5.33e-05, 0.000127, 0.107, 0.0184, 0.0752, 3.86e-05, 0.313, 0.803, 0.787, 0.597, 0.0773, 0.784, 0.802, 0.839, 0.917, 0.726, 0.762, 0.0698, 0.696, 0.225, 0.136, 0.00314, 0.0649, 0.00134, 0.439, 0.00712, 0.217, 0.446, 0.844, 0.00588, 0.845, 0.0129, 0.813, 0.0812, 0.706, 0.169, 0.858, 0.0446, 0.897, 0.868, 0.887, 0.00324, 0.588, 0.498, 0.722, 0.773, 0.0144, 0, 9.1e-05, 0, 0, 1.34e-06, 0.0202, 6.5e-05, 0.0583, 0.0356, 1.27e-06, 0.0136, 0.931, 0.589, 0.917, 0.733, 0.311, 0.921, 0.814, 0.932, 0.86, 0.864, 0.918, 0.85, 0.792, 0.854, 0.948, 0.903, 0.603, 0.849, 0.787, 1.61e-05, 0.00148, 5.01e-05, 0.0177, 0.674, 0.889, 0.482, 0.735, 0.893, 0.829, 0.51, 0.891, 0.81, 0.844, 0.818, 0.883, 0.909, 0.932, 0.972, 0.95, 0.848, 1.38e-06, 0.872, 0.391, 0.131, 0.00499, 0.722, 0.733, 0.921, 0.00265, 0.0869, 0, 0.873, 0.871, 0.793, 0.944, 0.925, 0.211, 0.846, 0.823, 0.808, 0.952, 0.964, 0.0843, 0.881, 0.924, 0.81, 0.864, 0.809, 0.902, 0.899, 0.931, 0.886, 0.000667, 0.00401, 1.6e-05, 0.133, 0.906, 0.00222, 4.5e-05, 0.000494, 0.000178, 0.865], 'instrumentalness_mean': 0.32711598733624453, 'instrumentalness_median': 0.0593, 'instrumentalness_min': 0, 'instrumentalness_max': 0.972, 'liveness': [0.128, 0.109, 0.101, 0.107, 0.0998, 0.084, 0.147, 0.231, 0.21, 0.1, 0.135, 0.0817, 0.157, 0.0944, 0.128, 0.271, 0.0801, 0.0891, 0.0901, 0.0781, 0.289, 0.116, 0.305, 0.074, 0.111, 0.0908, 0.248, 0.0605, 0.105, 0.089, 0.0646, 0.497, 0.195, 0.127, 0.141, 0.0737, 0.125, 0.0908, 0.104, 0.318, 0.0701, 0.544, 0.298, 0.291, 0.403, 0.0869, 0.383, 0.104, 0.06, 0.293, 0.0839, 0.116, 0.0516, 0.235, 0.127, 0.13, 0.109, 0.0717, 0.905, 0.0895, 0.824, 0.0985, 0.237, 0.0968, 0.07, 0.303, 0.113, 0.0817, 0.652, 0.119, 0.0691, 0.382, 0.292, 0.07, 0.0743, 0.0957, 0.101, 0.149, 0.435, 0.13, 0.0927, 0.0652, 0.113, 0.354, 0.236, 0.357, 0.115, 0.139, 0.115, 0.111, 0.271, 0.0783, 0.101, 0.0753, 0.126, 0.0991, 0.2, 0.0828, 0.21, 0.0944, 0.261, 0.3, 0.108, 0.114, 0.138, 0.131, 0.593, 0.16, 0.149, 0.311, 0.04, 0.648, 0.0977, 0.11, 0.0217, 0.115, 0.233, 0.0782, 0.0781, 0.43, 0.136, 0.0695, 0.313, 0.091, 0.391, 0.088, 0.0907, 0.174, 0.318, 0.332, 0.12, 0.221, 0.121, 0.0891, 0.171, 0.0901, 0.0397, 0.0634, 0.151, 0.216, 0.107, 0.654, 0.101, 0.609, 0.512, 0.0923, 0.0825, 0.104, 0.228, 0.111, 0.098, 0.114, 0.102, 0.182, 0.357, 0.107, 0.0866, 0.28, 0.0971, 0.114, 0.103, 0.0814, 0.212, 0.391, 0.0784, 0.165, 0.0651, 0.111, 0.0889, 0.101, 0.108, 0.281, 0.115, 0.0749, 0.104, 0.11, 0.207, 0.177, 0.306, 0.125, 0.123, 0.102, 0.295, 0.196, 0.109, 0.152, 0.109, 0.0874, 0.113, 0.141, 0.477, 0.0995, 0.234, 0.181, 0.314, 0.0971, 0.138, 0.0605, 0.115, 0.239, 0.0504, 0.0392, 0.0914, 0.138, 0.0299, 0.0772, 0.329, 0.227, 0.0997, 0.16, 0.0838, 0.103, 0.298, 0.246, 0.0813, 0.267, 0.0737, 0.134, 0.0879, 0.109, 0.111, 0.167, 0.278, 0.0511, 0.0931, 0.0625, 0.338, 0.0987, 0.359, 0.107, 0.108, 0.109, 0.142, 0.108, 0.0963, 0.0948, 0.128, 0.0731, 0.168, 0.131, 0.0648, 0.16, 0.119, 0.0855, 0.112, 0.0763, 0.107, 0.34, 0.122, 0.134, 0.096, 0.115, 0.522, 0.121, 0.103, 0.131, 0.103, 0.183, 0.106, 0.0902, 0.0592, 0.0968, 0.0856, 0.136, 0.528, 0.191, 0.0851, 0.117, 0.0922, 0.169, 0.206, 0.139, 0.125, 0.152, 0.104, 0.0806, 0.37, 0.069, 0.116, 0.0692, 0.0919, 0.106, 0.167, 0.324, 0.201, 0.27, 0.232, 0.124, 0.187, 0.0728, 0.574, 0.0912, 0.41, 0.637, 0.305, 0.116, 0.375, 0.127, 0.521, 0.907, 0.0822, 0.212, 0.0817, 0.0904, 0.0962, 0.106, 0.0969, 0.243, 0.105, 0.115, 0.0565, 0.0943, 0.134, 0.0933, 0.115, 0.106, 0.127, 0.106, 0.225, 0.115, 0.106, 0.0824, 0.114, 0.123, 0.0792, 0.108, 0.0664, 0.0891, 0.183, 0.0874, 0.0947, 0.352, 0.0828, 0.0897, 0.147, 0.193, 0.359, 0.124, 0.0957, 0.309, 0.205, 0.31, 0.289, 0.126, 0.425, 0.104, 0.199, 0.279, 0.11, 0.103, 0.112, 0.0945, 0.107, 0.104, 0.0942, 0.0842, 0.0401, 0.358, 0.115, 0.0541, 0.183, 0.0703, 0.0944, 0.107, 0.0698, 0.0725, 0.54, 0.111, 0.101, 0.104, 0.114, 0.0776, 0.0961, 0.372, 0.378, 0.115, 0.0784, 0.182, 0.25, 0.116, 0.258, 0.399, 0.118, 0.0718, 0.153, 0.0626, 0.335, 0.0951, 0.107, 0.0924, 0.0674, 0.109, 0.125, 0.116, 0.145, 0.102, 0.102, 0.0589, 0.136, 0.114, 0.52, 0.414, 0.111, 0.118, 0.404, 0.124, 0.102, 0.731, 0.106, 0.0344, 0.484, 0.496, 0.279, 0.0425, 0.109, 0.141, 0.0993, 0.19, 0.0796, 0.125, 0.0794, 0.113, 0.0799, 0.0859, 0.356, 0.0779, 0.151, 0.083, 0.931, 0.0582, 0.127, 0.312, 0.128, 0.107, 0.11, 0.0945, 0.15, 0.0748, 0.193, 0.103, 0.0763, 0.199, 0.0936, 0.17, 0.337, 0.253, 0.361, 0.7, 0.105, 0.0783, 0.167, 0.0894, 0.347, 0.0829, 0.0878, 0.113, 0.0969, 0.0994, 0.167, 0.116, 0.122, 0.111, 0.166, 0.513, 0.703, 0.122, 0.116, 0.104, 0.123, 0.117, 0.0546, 0.2, 0.109, 0.0557, 0.119, 0.126, 0.0682, 0.138, 0.0546, 0.0725, 0.0772, 0.245, 0.241, 0.145, 0.345, 0.182, 0.141, 0.106, 0.149, 0.133, 0.113, 0.115, 0.103, 0.126, 0.153, 0.128, 0.317, 0.469, 0.584, 0.127, 0.0805, 0.0949, 0.093, 0.0774, 0.0765, 0.0859, 0.0782, 0.0625, 0.301, 0.21, 0.12, 0.3, 0.0828, 0.139, 0.0784, 0.0575, 0.0692, 0.0907, 0.123, 0.106, 0.109, 0.412, 0.185, 0.132, 0.228, 0.101, 0.138, 0.372, 0.0902, 0.0989, 0.181, 0.123, 0.063, 0.0397, 0.0841, 0.0881, 0.109, 0.216, 0.0463, 0.175, 0.0565, 0.313, 0.112, 0.102, 0.0747, 0.0347, 0.0575, 0.37, 0.329, 0.0831, 0.029, 0.0953, 0.109, 0.256, 0.26, 0.107, 0.0714, 0.0665, 0.198, 0.263, 0.0743, 0.155, 0.108, 0.0908, 0.0835, 0.0423, 0.0759, 0.0587, 0.339, 0.11, 0.0998, 0.143, 0.111, 0.103, 0.0657, 0.13, 0.185, 0.141, 0.23, 0.193, 0.119, 0.699, 0.18, 0.0695, 0.159, 0.566, 0.0857, 0.0953, 0.707, 0.057, 0.0548, 0.164, 0.0999, 0.0726, 0.407, 0.118, 0.107, 0.176, 0.0981, 0.109, 0.074, 0.0985, 0.109, 0.0136, 0.0436, 0.102, 0.115, 0.111, 0.107, 0.0852, 0.0944, 0.134, 0.11, 0.09, 0.109, 0.0876, 0.105, 0.118, 0.1, 0.171, 0.11, 0.207, 0.118, 0.111, 0.0954, 0.142, 0.0932, 0.0504, 0.106, 0.0541, 0.0602, 0.66, 0.217, 0.0565, 0.227, 0.173, 0.0516, 0.13, 0.0511, 0.122, 0.114, 0.128, 0.0963, 0.0812, 0.126, 0.103, 0.182, 0.353, 0.114, 0.731, 0.0523, 0.351, 0.126, 0.109, 0.41, 0.0687, 0.173, 0.178, 0.0342, 0.111, 0.0454, 0.0682, 0.0947, 0.483, 0.101, 0.0903, 0.16, 0.0939, 0.115, 0.172, 0.156, 0.147, 0.161, 0.0864, 0.102, 0.115, 0.095, 0.112, 0.305, 0.0598, 0.147, 0.113, 0.123, 0.229, 0.333, 0.232, 0.29], 'liveness_mean': 0.16616157205240176, 'liveness_median': 0.113, 'liveness_min': 0.0136, 'liveness_max': 0.931, 'valence': [0.16, 0.35, 0.342, 0.282, 0.47, 0.422, 0.668, 0.383, 0.565, 0.467, 0.331, 0.24, 0.172, 0.345, 0.537, 0.402, 0.158, 0.132, 0.217, 0.17, 0.788, 0.446, 0.655, 0.794, 0.529, 0.683, 0.581, 0.385, 0.537, 0.544, 0.836, 0.305, 0.719, 0.905, 0.634, 0.859, 0.96, 0.709, 0.964, 0.761, 0.779, 0.164, 0.791, 0.875, 0.0756, 0.257, 0.147, 0.739, 0.2, 0.303, 0.306, 0.381, 0.109, 0.607, 0.37, 0.272, 0.701, 0.316, 0.545, 0.35, 0.496, 0.283, 0.491, 0.583, 0.527, 0.508, 0.661, 0.282, 0.424, 0.297, 0.25, 0.0357, 0.525, 0.837, 0.239, 0.515, 0.0368, 0.52, 0.285, 0.361, 0.105, 0.637, 0.738, 0.59, 0.666, 0.625, 0.245, 0.269, 0.361, 0.804, 0.945, 0.884, 0.894, 0.952, 0.7, 0.898, 0.775, 0.946, 0.597, 0.599, 0.283, 0.184, 0.403, 0.275, 0.294, 0.1, 0.217, 0.424, 0.274, 0.584, 0.794, 0.781, 0.795, 0.396, 0.977, 0.0909, 0.695, 0.78, 0.344, 0.839, 0.785, 0.462, 0.362, 0.811, 0.377, 0.957, 0.52, 0.863, 0.361, 0.771, 0.606, 0.523, 0.637, 0.472, 0.784, 0.266, 0.612, 0.417, 0.522, 0.151, 0.178, 0.175, 0.265, 0.613, 0.563, 0.442, 0.415, 0.221, 0.394, 0.165, 0.738, 0.831, 0.84, 0.585, 0.526, 0.96, 0.536, 0.586, 0.913, 0.628, 0.477, 0.158, 0.558, 0.635, 0.776, 0.171, 0.421, 0.522, 0.461, 0.156, 0.233, 0.204, 0.395, 0.491, 0.219, 0.723, 0.662, 0.75, 0.628, 0.292, 0.394, 0.322, 0.504, 0.155, 0.431, 0.504, 0.289, 0.56, 0.495, 0.476, 0.484, 0.597, 0.724, 0.531, 0.601, 0.185, 0.514, 0.772, 0.501, 0.315, 0.69, 0.594, 0.731, 0.86, 0.862, 0.751, 0.862, 0.864, 0.934, 0.647, 0.802, 0.331, 0.665, 0.274, 0.466, 0.182, 0.148, 0.082, 0.124, 0.0434, 0.792, 0.619, 0.93, 0.915, 0.33, 0.965, 0.376, 0.842, 0.608, 0.109, 0.09, 0.413, 0.207, 0.134, 0.367, 0.339, 0.429, 0.235, 0.103, 0.353, 0.142, 0.504, 0.225, 0.154, 0.16, 0.46, 0.333, 0.271, 0.121, 0.361, 0.537, 0.32, 0.567, 0.318, 0.222, 0.329, 0.249, 0.244, 0.26, 0.463, 0.442, 0.656, 0.415, 0.381, 0.481, 0.419, 0.119, 0.447, 0.728, 0.144, 0.714, 0.534, 0.706, 0.816, 0.569, 0.454, 0.746, 0.531, 0.845, 0.766, 0.221, 0.3, 0.118, 0.345, 0.479, 0.4, 0.535, 0.247, 0.124, 0.238, 0.772, 0.884, 0.807, 0.929, 0.783, 0.671, 0.566, 0.595, 0.869, 0.513, 0.111, 0.404, 0.0829, 0.122, 0.0371, 0.0823, 0.153, 0.308, 0.0392, 0.246, 0.608, 0.457, 0.527, 0.174, 0.308, 0.294, 0.311, 0.468, 0.36, 0.122, 0.607, 0.724, 0.742, 0.701, 0.67, 0.143, 0.796, 0.243, 0.562, 0.87, 0.625, 0.451, 0.519, 0.659, 0.538, 0.351, 0.305, 0.875, 0.574, 0.695, 0.351, 0.196, 0.636, 0.134, 0.549, 0.268, 0.503, 0.314, 0.273, 0.318, 0.712, 0.0397, 0.116, 0.113, 0.172, 0.623, 0.26, 0.419, 0.245, 0.222, 0.303, 0.299, 0.226, 0.165, 0.626, 0.714, 0.036, 0.235, 0.287, 0.117, 0.285, 0.498, 0.232, 0.608, 0.651, 0.343, 0.14, 0.681, 0.63, 0.278, 0.16, 0.115, 0.086, 0.0864, 0.113, 0.039, 0.262, 0.13, 0.0987, 0.074, 0.372, 0.837, 0.744, 0.727, 0.686, 0.12, 0.0763, 0.693, 0.804, 0.641, 0.156, 0.345, 0.803, 0.0709, 0.279, 0.051, 0.608, 0.504, 0.0382, 0.518, 0.618, 0.37, 0.238, 0.165, 0.266, 0.0325, 0.823, 0.869, 0.674, 0.454, 0.738, 0.887, 0.972, 0.553, 0.855, 0.684, 0.666, 0.334, 0.53, 0.935, 0.219, 0.218, 0.308, 0.0382, 0.032, 0.41, 0.278, 0.178, 0.158, 0.153, 0.629, 0.664, 0.529, 0.744, 0.653, 0.586, 0.0901, 0.442, 0.513, 0.7, 0.103, 0.0932, 0.0671, 0.0368, 0.0352, 0.154, 0.0357, 0.0399, 0.0493, 0.29, 0.288, 0.196, 0.477, 0.501, 0.194, 0.0397, 0.247, 0.38, 0.583, 0.433, 0.255, 0.787, 0.444, 0.696, 0.452, 0.484, 0.49, 0.283, 0.796, 0.225, 0.751, 0.039, 0.446, 0.529, 0.572, 0.231, 0.851, 0.178, 0.29, 0.287, 0.824, 0.0935, 0.646, 0.25, 0.195, 0.0946, 0.336, 0.434, 0.611, 0.443, 0.22, 0.436, 0.684, 0.64, 0.721, 0.464, 0.396, 0.131, 0.403, 0.378, 0.156, 0.223, 0.376, 0.319, 0.463, 0.147, 0.301, 0.187, 0.714, 0.251, 0.196, 0.357, 0.537, 0.0456, 0.641, 0.122, 0.658, 0.421, 0.131, 0.442, 0.531, 0.336, 0.421, 0.284, 0.132, 0.0493, 0.266, 0.474, 0.605, 0.0353, 0.526, 0.175, 0.151, 0.0344, 0.194, 0.504, 0.277, 0.883, 0.57, 0.862, 0.62, 0.0476, 0.209, 0.171, 0.869, 0.936, 0.515, 0.964, 0.303, 0.612, 0.957, 0.475, 0.176, 0.59, 0.699, 0.842, 0.96, 0.881, 0.521, 0.835, 0.954, 0.458, 0.795, 0.672, 0.231, 0.393, 0.417, 0.126, 0.28, 0.688, 0.483, 0.326, 0.403, 0.474, 0.686, 0.858, 0.349, 0.0502, 0.936, 0.724, 0.683, 0.926, 0.853, 0.261, 0.912, 0.16, 0.448, 0.879, 0.677, 0.291, 0.328, 0.296, 0.503, 0.736, 0.552, 0.543, 0.221, 0.752, 0.692, 0.868, 0.133, 0.727, 0.363, 0.501, 0.0477, 0.121, 0.52, 0.196, 0.0453, 0.254, 0.0335, 0.0398, 0.211, 0.0561, 0.15, 0.238, 0.113, 0.533, 0.292, 0.423, 0.742, 0.545, 0.362, 0.889, 0.451, 0.282, 0.115, 0.393, 0.965, 0.377, 0.32, 0.398, 0.598, 0.168, 0.0666, 0.186, 0.62, 0.53, 0.712, 0.538, 0.302, 0.438, 0.405, 0.489, 0.604, 0.271, 0.493, 0.568, 0.374, 0.354, 0.405, 0.651, 0.124, 0.423, 0.118, 0.306, 0.87, 0.293, 0.388, 0.38, 0.695, 0.651, 0.472, 0.606, 0.733, 0.0805, 0.542, 0.258, 0.376, 0.177, 0.534, 0.876, 0.494, 0.388, 0.288, 0.278, 0.313], 'valence_mean': 0.447654730713246, 'valence_median': 0.431, 'valence_min': 0.032, 'valence_max': 0.977, 'tempo': [100.351, 125.051, 91.537, 126.001, 128.189, 122.908, 124.038, 130.08, 119.982, 109.351, 84.804, 128.924, 106.435, 76.715, 104.344, 99.984, 124.881, 123.151, 106.965, 188.623, 170.84, 91.99, 110.009, 114.0, 75.009, 119.997, 166.014, 147.507, 75.004, 96.959, 119.7, 97.54, 144.087, 141.324, 97.996, 121.081, 150.919, 93.005, 109.071, 115.985, 131.983, 119.839, 132.009, 131.986, 132.01, 158.743, 124.013, 125.035, 139.936, 120.094, 121.974, 138.762, 72.074, 122.262, 92.014, 97.967, 120.318, 137.466, 119.998, 106.961, 113.015, 117.055, 85.03, 115.001, 107.271, 113.046, 170.065, 111.984, 116.966, 114.979, 126.143, 134.941, 172.099, 136.235, 146.195, 109.451, 151.983, 118.589, 106.003, 97.026, 183.051, 127.993, 96.032, 111.985, 148.001, 96.004, 164.993, 69.012, 159.9, 136.059, 125.992, 119.997, 122.039, 100.016, 104.948, 121.033, 127.984, 129.934, 95.984, 125.992, 81.305, 79.275, 93.06, 117.693, 79.929, 163.801, 119.093, 123.999, 78.054, 84.863, 98.004, 169.442, 142.584, 113.003, 135.997, 176.526, 116.981, 124.013, 151.011, 121.102, 117.97, 112.009, 139.977, 119.012, 139.799, 121.041, 141.952, 130.024, 139.981, 106.035, 204.429, 179.524, 150.019, 107.094, 188.061, 139.287, 94.036, 116.989, 78.732, 133.377, 128.905, 132.067, 127.206, 104.018, 145.992, 131.989, 127.922, 139.428, 138.388, 78.029, 202.376, 110.689, 112.747, 121.352, 120.163, 112.832, 96.776, 127.026, 185.963, 131.502, 101.967, 99.851, 119.988, 119.954, 116.054, 86.923, 119.989, 164.048, 140.035, 139.474, 115.98, 91.016, 104.02, 119.233, 84.008, 98.021, 98.011, 104.996, 115.051, 83.008, 80.032, 140.039, 84.036, 151.276, 79.646, 82.165, 162.411, 87.678, 77.841, 89.744, 89.455, 102.758, 144.902, 130.773, 92.059, 99.124, 123.064, 200.3, 84.746, 103.366, 118.579, 118.588, 118.97, 122.008, 123.995, 121.984, 105.988, 117.97, 113.961, 120.01, 104.149, 120.004, 123.042, 96.916, 113.003, 122.043, 95.815, 103.967, 115.03, 88.421, 125.01, 104.991, 109.96, 115.963, 112.82, 104.976, 102.99, 111.971, 102.382, 130.006, 87.082, 75.208, 96.394, 57.0, 99.732, 118.091, 149.975, 100.042, 79.031, 102.304, 141.504, 99.529, 131.958, 121.97, 76.168, 70.885, 99.921, 123.139, 145.926, 78.572, 117.023, 144.982, 129.903, 164.971, 113.818, 83.827, 111.884, 111.86, 140.949, 163.899, 130.579, 173.987, 146.122, 98.01, 104.215, 189.895, 175.558, 105.601, 158.965, 165.846, 131.99, 114.992, 106.975, 203.681, 95.063, 125.036, 203.532, 127.988, 107.017, 125.074, 110.999, 114.995, 119.981, 124.022, 100.024, 119.997, 115.02, 118.006, 114.333, 123.984, 91.452, 82.207, 109.209, 84.615, 88.223, 87.325, 85.419, 80.656, 103.605, 82.616, 120.011, 83.046, 122.02, 120.008, 118.017, 112.966, 127.972, 82.147, 119.014, 122.984, 102.994, 119.971, 90.021, 107.984, 109.994, 114.984, 124.973, 119.985, 139.925, 112.041, 120.008, 119.992, 115.007, 169.967, 119.947, 119.978, 109.006, 138.747, 114.987, 130.973, 155.939, 81.004, 101.02, 155.967, 105.06, 144.92, 143.046, 185.02, 146.036, 139.946, 99.997, 139.939, 139.919, 118.385, 164.036, 114.003, 114.0, 99.995, 74.981, 119.924, 119.991, 126.027, 124.171, 121.998, 125.006, 133.113, 138.233, 128.569, 137.198, 133.101, 124.004, 120.03, 121.009, 123.007, 121.018, 125.011, 125.986, 116.979, 127.003, 125.99, 140.958, 180.521, 82.201, 141.112, 135.191, 78.975, 117.037, 127.951, 123.017, 178.138, 97.798, 101.833, 114.92, 157.076, 145.896, 143.932, 133.956, 94.836, 142.181, 165.743, 189.938, 173.959, 109.995, 96.003, 141.061, 95.972, 84.975, 109.978, 109.941, 173.949, 167.085, 124.847, 155.995, 160.046, 100.984, 98.603, 127.993, 147.201, 122.839, 124.866, 120.012, 120.006, 120.054, 120.0, 117.994, 74.526, 115.006, 119.635, 121.987, 115.99, 102.025, 119.982, 154.971, 104.997, 107.999, 107.983, 109.019, 104.992, 110.014, 120.005, 132.004, 116.998, 123.01, 150.036, 123.004, 119.999, 120.031, 120.002, 131.998, 145.006, 86.993, 140.096, 125.014, 125.024, 105.025, 110.026, 115.007, 89.018, 178.134, 82.221, 168.022, 134.91, 119.985, 135.999, 79.875, 120.01, 85.934, 97.978, 86.003, 119.971, 128.014, 111.87, 130.084, 115.954, 114.01, 62.866, 119.992, 117.001, 117.022, 115.121, 120.006, 134.994, 125.04, 124.998, 126.995, 104.969, 121.015, 120.002, 125.001, 120.985, 121.984, 105.0, 97.986, 117.882, 122.995, 100.015, 97.001, 90.019, 120.006, 120.019, 76.172, 98.41, 148.07, 97.552, 118.003, 114.999, 120.007, 123.999, 120.01, 115.004, 117.007, 124.002, 122.001, 102.008, 120.01, 124.01, 146.496, 115.111, 93.916, 119.993, 121.002, 120.036, 127.018, 113.992, 94.983, 79.932, 81.111, 161.177, 123.504, 183.978, 83.999, 171.921, 118.055, 128.007, 140.115, 98.257, 125.017, 109.138, 92.38, 98.991, 111.953, 90.233, 136.846, 121.694, 99.991, 120.009, 117.994, 119.959, 116.986, 118.004, 124.002, 118.003, 117.011, 117.981, 100.009, 119.973, 125.998, 116.042, 121.866, 122.032, 119.962, 97.531, 71.638, 68.494, 125.126, 122.999, 120.007, 120.971, 122.982, 122.988, 120.997, 120.585, 120.002, 118.414, 120.035, 140.075, 105.036, 128.981, 105.013, 128.053, 128.015, 120.012, 110.007, 125.557, 101.492, 126.97, 103.993, 120.795, 120.008, 106.98, 127.007, 127.032, 124.712, 101.979, 122.013, 127.021, 119.992, 123.015, 119.998, 128.005, 123.983, 123.979, 121.999, 104.96, 114.584, 136.983, 91.542, 75.756, 143.292, 94.552, 139.752, 79.19, 154.375, 102.669, 123.0, 135.057, 123.982, 128.96, 128.463, 119.986, 114.989, 128.994, 134.606, 130.173, 123.001, 120.002, 117.999, 104.985, 58.492, 117.985, 119.004, 117.997, 124.005, 118.014, 124.856, 120.022, 124.114, 119.974, 112.015, 119.013, 110.013, 120.97, 120.003, 120.969, 89.993, 110.006, 116.995, 126.97, 126.979, 127.018, 109.999, 164.003, 115.962, 104.536, 93.743, 82.449, 125.998, 124.044, 120.578, 123.0, 127.007, 119.977, 120.885, 120.99, 120.056, 178.383, 125.0, 121.999, 129.001, 126.982, 123.989, 122.994, 121.991, 123.009, 126.0, 126.989, 126.999, 114.009, 114.021, 120.016, 112.001, 112.033, 119.875, 111.999, 111.986, 118.036, 116.992, 127.734, 89.951, 72.878, 90.015, 120.016, 116.976, 118.014, 133.118, 121.748, 134.974], 'tempo_mean': 119.34637991266375, 'tempo_median': 119.997, 'tempo_min': 57.0, 'tempo_max': 204.429, 'duration_ms': [127920, 224133, 171653, 233280, 371533, 201947, 160720, 238373, 250000, 177093, 190185, 234653, 214255, 171728, 221874, 193059, 277506, 271088, 189796, 367391, 235000, 222335, 190448, 314487, 230630, 261742, 224237, 343359, 248840, 329800, 266600, 241547, 193120, 197973, 248213, 205920, 167853, 235773, 178613, 232680, 383893, 219760, 221000, 310120, 240640, 187133, 265787, 233107, 155293, 204290, 280070, 185728, 210982, 228467, 142174, 222719, 273427, 156000, 201040, 204160, 242267, 234960, 209826, 345304, 327387, 334225, 297316, 250826, 200827, 222000, 218733, 321533, 237027, 282560, 309667, 252360, 286333, 236640, 305703, 299970, 289307, 320654, 230693, 281407, 243509, 253831, 271673, 262540, 248920, 196570, 210559, 201042, 259664, 186093, 196489, 247934, 228027, 238479, 227907, 225155, 234487, 164640, 167173, 237920, 160136, 109353, 145603, 258293, 254840, 142893, 536471, 349693, 462267, 390013, 201720, 335480, 352004, 473333, 418773, 347347, 270507, 465333, 217040, 213640, 235000, 289607, 252200, 234733, 250333, 302573, 189293, 183533, 143005, 234160, 170840, 290736, 190613, 242296, 173893, 383800, 218160, 316188, 233857, 246952, 205614, 206600, 253435, 263923, 177796, 264120, 196627, 168720, 153333, 200253, 203000, 158013, 211767, 193573, 194400, 133867, 210613, 268133, 212333, 199746, 208669, 209067, 268440, 178720, 263227, 229747, 238667, 217053, 225600, 252107, 211693, 208707, 159013, 224680, 255720, 215093, 155960, 273864, 165983, 351876, 247055, 220836, 300996, 183222, 247839, 195643, 213622, 221194, 220617, 178313, 201870, 257472, 185066, 180062, 185400, 223200, 345560, 376973, 361520, 199087, 471996, 283389, 268836, 255613, 229337, 249840, 194023, 276785, 280878, 261881, 269815, 357357, 212044, 149811, 253848, 342604, 556924, 288080, 209453, 368373, 326387, 475058, 283425, 265747, 250533, 222270, 200195, 209400, 160160, 225780, 304653, 219693, 188987, 213747, 214240, 350742, 339190, 218319, 238146, 195353, 341062, 268987, 266041, 216893, 242829, 72043, 155720, 262231, 252231, 262600, 206975, 135707, 238480, 136000, 115000, 171789, 195446, 193669, 121171, 188782, 161800, 216592, 217120, 241021, 249706, 240114, 213989, 187837, 221279, 212815, 224728, 208910, 241025, 249375, 205368, 186149, 219946, 218358, 339258, 192533, 195862, 247862, 201182, 277726, 204024, 208072, 218307, 258044, 159013, 213760, 298440, 219840, 225154, 251773, 190999, 209025, 190750, 184990, 193105, 253999, 291433, 292971, 365033, 208931, 193570, 330579, 230213, 238080, 234853, 329467, 257747, 276253, 228347, 239000, 233627, 279880, 341000, 178907, 217565, 321087, 313468, 286145, 286170, 173380, 329175, 62215, 206968, 213242, 213840, 207445, 201446, 156993, 287852, 134929, 202963, 209264, 318147, 280074, 248382, 250633, 267887, 327787, 255248, 335867, 144938, 257865, 263146, 429700, 774294, 483960, 364360, 481573, 392253, 604828, 268227, 405067, 502002, 356493, 182788, 347466, 337681, 370640, 406707, 427295, 579520, 521815, 390253, 225387, 219405, 190329, 213040, 199312, 236960, 206270, 219306, 210622, 192042, 208954, 182500, 205605, 245196, 353333, 254755, 245053, 199437, 316627, 197673, 203103, 226043, 215191, 194275, 237165, 207301, 219988, 225500, 221675, 228693, 416827, 428369, 516520, 315720, 240591, 340773, 138707, 171000, 296200, 323027, 343232, 267333, 600613, 511308, 253976, 354184, 301093, 390234, 513125, 249957, 219603, 207192, 348093, 266455, 296045, 319266, 240318, 215804, 265800, 249549, 338608, 528147, 395229, 452443, 357773, 277607, 517416, 349935, 201494, 184987, 165391, 254042, 192006, 168677, 203537, 232328, 229160, 200170, 198120, 67520, 120780, 158000, 219893, 143880, 156240, 194947, 129539, 73617, 94903, 237231, 274729, 201446, 196365, 218911, 155116, 340199, 196923, 209231, 205678, 577345, 129883, 236421, 404041, 340086, 369558, 323493, 246213, 371434, 348307, 283389, 277220, 264046, 182764, 196559, 222092, 260159, 245905, 330848, 278205, 127760, 143174, 166568, 179060, 629447, 504268, 490991, 498467, 448184, 357787, 560060, 397612, 504026, 184227, 351207, 410471, 96888, 452062, 192787, 350374, 424671, 386631, 387200, 203637, 333693, 423280, 311907, 258093, 242467, 258173, 234360, 289467, 333893, 263413, 207947, 202866, 262023, 303893, 337240, 223030, 298929, 256492, 183061, 250133, 412220, 425417, 511308, 398000, 373917, 523285, 405500, 517518, 538494, 527484, 322773, 335987, 205693, 205187, 304440, 211480, 270440, 324240, 192547, 376387, 413315, 459964, 477738, 260048, 592086, 368855, 369978, 324669, 385962, 347462, 249933, 203867, 208493, 204360, 265280, 214373, 218600, 238480, 293280, 223000, 323362, 502162, 151739, 542325, 320222, 356078, 418379, 162133, 425911, 58874, 413693, 396876, 429409, 554805, 478397, 438979, 253893, 250394, 382984, 267721, 154907, 225533, 153960, 166187, 329387, 367013, 164600, 264933, 309227, 155080, 415730, 515754, 381290, 292693, 451706, 547255, 404870, 465116, 428498, 314027, 647679, 485289, 363971, 394021, 326230, 391999, 342859, 480000, 418079, 423083, 163200, 170120, 178580, 341771, 361920, 429739, 336866, 380308, 369280, 335571, 369627, 364600, 424053, 502162, 338375, 494554, 295772, 272933, 150000, 135732, 303486, 179705, 269047, 263387, 254938, 333662, 326000, 277960, 233694, 478017, 296000, 271876, 257615, 480258, 552694, 498091, 492373, 454927, 427320, 427513, 409977, 373304, 355116, 358886, 244000, 413196, 476786, 341786, 538996, 274454, 303167, 439067, 492884, 277438, 142756, 261178, 161000, 125574, 182044, 233082, 194305, 196812, 232551], 'duration_ms_mean': 277233.86026200873, 'duration_ms_median': 249706, 'duration_ms_min': 58874, 'duration_ms_max': 774294, 'time_signature': [4, 4, 4, 4, 4, 4, 4, 4, 4, 4, 4, 4, 4, 4, 4, 4, 4, 4, 4, 4, 4, 4, 4, 4, 4, 4, 4, 4, 4, 4, 4, 4, 4, 4, 4, 3, 4, 4, 4, 4, 4, 4, 4, 4, 4, 4, 4, 4, 4, 4, 4, 4, 4, 4, 4, 4, 4, 4, 4, 4, 4, 4, 4, 4, 4, 4, 4, 4, 4, 4, 4, 4, 4, 4, 4, 4, 4, 4, 4, 4, 4, 4, 4, 4, 4, 4, 4, 4, 4, 4, 4, 4, 4, 4, 4, 4, 4, 4, 4, 4, 4, 4, 4, 4, 4, 4, 4, 4, 4, 4, 4, 4, 4, 4, 4, 3, 4, 4, 4, 4, 4, 4, 4, 4, 4, 4, 4, 4, 4, 4, 4, 4, 4, 4, 4, 4, 4, 4, 4, 4, 4, 4, 4, 4, 4, 5, 4, 4, 4, 4, 4, 4, 4, 4, 4, 4, 4, 4, 4, 4, 4, 4, 4, 4, 4, 4, 4, 4, 4, 4, 4, 4, 4, 4, 4, 4, 4, 4, 4, 4, 4, 4, 4, 4, 4, 4, 4, 4, 4, 4, 4, 4, 5, 5, 4, 4, 5, 4, 4, 4, 4, 4, 4, 4, 4, 4, 4, 4, 4, 4, 4, 4, 4, 4, 4, 3, 4, 4, 4, 4, 4, 4, 4, 4, 4, 4, 4, 4, 4, 4, 4, 4, 4, 4, 4, 4, 4, 4, 4, 4, 4, 4, 4, 4, 4, 4, 4, 4, 4, 1, 4, 4, 4, 4, 4, 5, 4, 4, 4, 4, 5, 4, 4, 4, 4, 4, 3, 4, 4, 4, 4, 4, 4, 4, 4, 4, 4, 4, 4, 4, 4, 4, 4, 4, 4, 4, 4, 4, 4, 4, 4, 4, 4, 4, 4, 4, 4, 4, 4, 4, 4, 4, 4, 4, 4, 4, 4, 4, 4, 4, 4, 4, 4, 4, 4, 4, 4, 4, 4, 4, 4, 4, 4, 4, 4, 4, 4, 4, 4, 4, 4, 4, 4, 4, 4, 4, 4, 4, 4, 4, 4, 4, 4, 4, 4, 4, 4, 4, 4, 4, 4, 4, 3, 4, 4, 4, 4, 3, 4, 4, 4, 4, 4, 5, 4, 4, 4, 4, 4, 4, 4, 4, 4, 4, 4, 4, 4, 4, 4, 4, 4, 4, 4, 4, 4, 4, 4, 4, 4, 4, 4, 4, 4, 4, 4, 4, 4, 4, 4, 4, 4, 4, 4, 4, 4, 3, 4, 4, 5, 4, 4, 4, 4, 4, 4, 3, 4, 4, 4, 4, 4, 4, 5, 4, 4, 4, 4, 4, 4, 4, 4, 4, 4, 4, 4, 4, 3, 4, 4, 4, 4, 4, 4, 4, 4, 4, 4, 4, 4, 4, 4, 4, 4, 5, 4, 3, 3, 4, 4, 4, 4, 4, 4, 4, 4, 3, 4, 4, 4, 4, 4, 3, 4, 4, 4, 4, 4, 4, 4, 4, 4, 4, 4, 4, 4, 4, 4, 4, 4, 4, 4, 4, 4, 3, 4, 4, 4, 4, 4, 4, 4, 4, 4, 4, 4, 4, 5, 4, 3, 1, 4, 4, 4, 4, 4, 4, 4, 4, 4, 4, 4, 4, 4, 4, 4, 3, 4, 4, 4, 4, 4, 4, 4, 5, 4, 4, 4, 4, 4, 4, 4, 4, 4, 4, 4, 4, 4, 4, 3, 4, 4, 3, 4, 4, 4, 4, 4, 4, 4, 4, 4, 3, 4, 4, 4, 4, 4, 4, 4, 4, 4, 4, 4, 4, 4, 4, 4, 4, 4, 4, 4, 4, 4, 4, 4, 4, 4, 4, 4, 4, 4, 4, 4, 4, 4, 3, 3, 4, 4, 3, 3, 4, 3, 4, 4, 4, 4, 4, 4, 4, 4, 4, 4, 4, 4, 4, 4, 4, 4, 4, 4, 5, 4, 5, 4, 4, 4, 4, 4, 4, 4, 4, 4, 4, 4, 4, 4, 4, 4, 4, 4, 4, 4, 4, 4, 3, 4, 3, 4, 4, 4, 4, 4, 4, 4, 4, 4, 4, 4, 4, 4, 4, 4, 4, 4, 4, 3, 4, 4, 4, 4, 4, 4, 4, 4, 4, 4, 4, 4, 4, 4, 4, 4, 4, 4, 4, 4], 'time_signature_min': 1, 'time_signature_max': 5, 'time_signature_mode': [4]};12:00:00;http://www.songkick.com/festivals/2072544-all-points-east/id/31697529-all-points-east-2018?utm_source=48622&utm_medium=partner;0.648;0.63;-8.533;[1];0.0593;0.113;0.431;277233.8603;[4];;;;;;;;;;;;
1578;5aff783284d273000431fe3d;25/5/2018 0:00;Inon Barnatan at Wigmore Hall (May 25, 2018);0.000127;;Concert;Friday;51.5165187;-0.1483276;41;452;0.2115;0.04055;[1];-27.0765;[1];0.0417;0.99;0.884;0.09425;0.05505;362818.7;[4]
1603;5aff78ad84d273000431fe90;25/5/2018 0:00;Hotel Pro Forma and Latvian Radio Choir at Queen Elizabeth Hall, Southbank Centre (May 25, 2018);0.000232;19:30:00;Concert;Friday;51.5112139;-0.1198244;39;1333;0.176;0.07325;[8];-23.4225;[1];0.04245;0.985;0.864;0.103;0.03985;228988.7;[3]
1685;5aff79c384d273000431ff5c;26/5/2018 0:00;Walthamstow Folk Festival 2018;0.000735;;Festival;Saturday;51.5859219;-0.0198687;9;4433;0.487;0.3315;[9];-11.019;[1];0.04175;0.832;2.95E-06;0.147;0.386;238329.2333;[4]
1731;5aff7a7484d273000431ffe2;26/5/2018 0:00;London Contemporary Voices, Jesca Hoop, Maya Youssef, Deepa Nair Rasiya, and 1 more… at Union Chapel (May 26, 2018);0.008098;19:00:00;Concert;Saturday;51.5443277;-0.1028893;12.5;23992;0.473;0.298;[6];-10.385;[1];0.0389;0.897;1.47E-05;0.111;0.472;243054.5333;[4]
1777;5b00c93263800d0004c40d5a;27/5/2018 0:00;Why Don't We and Eben at O2 Shepherd's Bush Empire (May 27, 2018);0.008203;19:00:00;Concert;Sunday;51.503507;-0.2238407;55.5;561050;0.7085;0.683;[0];-4.983;[1];0.06635;0.0964;0;0.109;0.552;180078.0625;[4]
1807;5b00c99b63800d0004c40da1;27/5/2018 0:00;Heartless Crew, DJ Luck & MC Neat, Wookie, Martin Larner, and 8 more… at fabric (May 27, 2018);0.005667;23:00:00;Concert;Sunday;51.5195531;-0.1024779;27;45629;0.606;0.658;[9];-8.799;[1];0.0514;0.0646;0.00419;0.118;0.5;321513.12;[4]
1843;5b021a4d6dc9fc00044e5f1e;28/5/2018 0:00;Gazpacho at The Dome, Tufnell Park (May 28, 2018);0.001943;19:00:00;Concert;Monday;51.5575896;-0.1387684;39;17330;0.427;0.371;[0];-13.187;[0];0.03065;0.127;0.06125;0.145;0.113;447099.5;[4]
1844;5b021a516dc9fc00044e5f21;28/5/2018 0:00;Fretwork with Iestyn Davies at Milton Court Concert Hall, Guildhall School of Music & Drama (May 28, 2018);0.000421;19:00:00;Concert;Monday;51.52044;-0.092311;27;4602;0.2465;0.0581;[1];-24.412;[0];0.04355;0.953;0.2175;0.1075;0.164;237225.15;[4]
1876;5b036bdce926df00044b2fa0;29/5/2018 0:00;Gareth Malone at G Live (May 29, 2018);0.00013;19:00:00;Concert;Tuesday;51.2486437;-0.5541293;17;943;0.2895;0.279;[5];-11.828;[1];0.03615;0.9615;0.06165;0.1032;0.2135;202342.6;[4]
