;_id;date;datetime;name;popularity;time;type;url;date_name;lat;lng;popularity_median;followers_sum;danceability_median;energy_median;key_mode;loudness_median;mode_mode;speechiness_median;acousticness_median;instrumentalness_median;liveness_median;valence_median;duration_ms_mean;time_signature_mode
3;5af9c6e50cc9ab0004e227d8;14/5/2018 0:00;14/5/2018 18:00;Elephant Sessions at Thousand Island (formerly Upstairs at The Garage) (May 14, 2018);0.000127;19:00:00;Concert;http://www.songkick.com/concerts/32044684-elephant-sessions-at-thousand-island?utm_source=48622&utm_medium=partner;Monday;51.5466983;-0.1038429;33;1933;0.5065;0.68;[5];-7.5835;[1];0.039;0.249;0.33;0.108;0.625;281961.8;[4]
42;5af9c75b0cc9ab0004e22839;15/5/2018 0:00;15/5/2018 18:00;Japanese Breakfast with Fear of Men at Islington Assembly Hall (May 15, 2018);0.008464;19:00:00;Concert;http://www.songkick.com/concerts/32243119-japanese-breakfast-at-islington-assembly-hall?utm_source=47927&utm_medium=partner;Tuesday;51.5395158;-0.1024666;45;87445;0.455;0.5825;[4];-8.1085;[1];0.03455;0.211;0.167;0.115;0.2665;213084.45;[4]
60;5af9c78a0cc9ab0004e22863;15/5/2018 0:00;15/5/2018 18:30;Hollow Coves at Omeara (May 15, 2018);0.002564;19:30:00;Concert;http://www.songkick.com/concerts/33012749-hollow-coves-at-omeara?utm_source=47927&utm_medium=partner;Tuesday;51.5041429;-0.094603;62;37428;0.6125;0.505;[9];-11.14;[1];0.0308;0.562;0.004405;0.10255;0.3335;225267.3;[4]
107;5af9d799985cfc00044f818f;16/5/2018 0:00;16/5/2018 18:30;U.S. Girls at Scala (May 16, 2018);0.004038;19:30:00;Concert;http://www.songkick.com/concerts/32429709-us-girls-at-scala?utm_source=48622&utm_medium=partner;Wednesday;51.5309284;-0.1202729;50;24299;0.537;0.804;[9];-5.8325;[1];0.0447;0.08935;0.03534;0.257;0.4545;250805.1;[4]
113;5af9d7b0985cfc00044f81a0;16/5/2018 0:00;16/5/2018 18:00;Bullet, Screamer, and KilliT with Jesus Chrüsler Supercar at O2 Academy 2 Islington (May 16, 2018);0.001436;19:00:00;Concert;http://www.songkick.com/concerts/32796599-bullet-at-o2-academy-2-islington?utm_source=48622&utm_medium=partner;Wednesday;51.5345836;-0.1059202;8;340706;0.395;0.841;[6];-5.8525;[1];0.04585;0.0011235;0.004815;0.1285;0.4255;252858.425;[4]
124;5af9d7d4985cfc00044f81be;16/5/2018 0:00;16/5/2018 18:00;Sam Fender at Boileroom (May 16, 2018);0.000525;19:00:00;Concert;http://www.songkick.com/concerts/33149984-sam-fender-at-boileroom?utm_source=48622&utm_medium=partner;Wednesday;51.2397042;-0.5738364;42;8650;0.598;0.733;[6];-6.129;[1];0.0458;0.0101;0.0288;0.121;0.614;176134.8;[4]
126;5af9d7d9985cfc00044f81c3;16/5/2018 0:00;16/5/2018 18:30;Rothwell with Emma McGrath at Thousand Island (formerly Upstairs at The Garage) (May 16, 2018);0.000272;19:30:00;Concert;http://www.songkick.com/concerts/33188974-rothwell-at-thousand-island?utm_source=48622&utm_medium=partner;Wednesday;51.5466983;-0.1038429;40.5;1786;0.626;0.484;[0];-7.636;[1];0.04245;0.4735;0;0.102;0.414;201275.6875;[4]
334;5afabbfbdcab560004a0b141;18/5/2018 0:00;;Japanese Breakfast at The Windmill, Brixton (May 18, 2018);0.008957;;Concert;http://www.songkick.com/concerts/33880499-japanese-breakfast-at-windmill-brixton?utm_source=48622&utm_medium=partner;Friday;51.454073;-0.1223363;58;77743;0.501;0.654;[4];-7.472;[1];0.03025;0.0582;0.1495;0.132;0.2665;222761;[4]
537;5afabec5dcab560004a0b36f;22/5/2018 0:00;22/5/2018 18:30;Wild Child at Oslo Hackney (May 22, 2018);0.016706;19:30:00;Concert;http://www.songkick.com/concerts/32795594-wild-child-at-oslo-hackney?utm_source=47927&utm_medium=partner;Tuesday;51.5479818;-0.0575201;60;84787;0.71;0.504;[2];-8.621;[1];0.0397;0.443;0.0001855;0.1205;0.5075;226711;[4]
541;5afabed1dcab560004a0b379;22/5/2018 0:00;;The Rolling Stones with Liam Gallagher at London Stadium (May 22, 2018);0.473611;;Concert;http://www.songkick.com/concerts/32988459-rolling-stones-at-london-stadium?utm_source=47927&utm_medium=partner;Tuesday;51.5432665;-0.0124774;71;4741298;0.486;0.774;[0];-5.4235;[1];0.03485;0.05025;0.00011245;0.1195;0.503;252279.5;[4]
734;5afaee3ff4259d0004b0e5e5;14/4/2018 0:00;14/4/2018 18:00;Who's Who at Half Moon, Putney (April 14, 2018);0.001155;19:00:00;Concert;http://www.songkick.com/concerts/33273349-whos-who-at-half-moon-putney?utm_source=47927&utm_medium=partner;Saturday;51.4678461;-0.2217681;70;1610155;0.4505;0.7195;[2];-9.769;[1];0.03755;0.233;0.005675;0.143;0.3655;288376.7;[4]
816;5afaef11f4259d0004b0e6a0;16/4/2018 0:00;16/4/2018 18:30;Porches with Lauren Auder and ALASKALASKA at Village Underground (April 16, 2018);0.010143;19:30:00;Concert;http://www.songkick.com/concerts/32409309-porches-at-village-underground?utm_source=48067&utm_medium=partner;Monday;51.5237877;-0.0780335;38;51395;0.5265;0.528;[2];-8.5885;[0];0.0374;0.172;0.00657;0.1145;0.308;235715.9091;[4]
819;5afaef18f4259d0004b0e6a7;16/4/2018 0:00;16/4/2018 19:00;Sugar Candy Mountain at The Lock Tavern (April 16, 2018);0.00166;20:00:00;Concert;http://www.songkick.com/concerts/32623079-sugar-candy-mountain-at-lock-tavern?utm_source=48067&utm_medium=partner;Monday;51.5431173;-0.1484239;48;20153;0.5715;0.7205;[5];-7.357;[1];0.02885;0.1355;0.07695;0.1805;0.6615;223429.7;[4]
850;5afaef62f4259d0004b0e6ee;17/4/2018 0:00;17/4/2018 18:00;Little Hours at Hoxton Square Bar & Kitchen (April 17, 2018);0.000547;19:00:00;Concert;http://www.songkick.com/concerts/32615789-little-hours-at-hoxton-square-bar-and-kitchen?utm_source=47927&utm_medium=partner;Tuesday;51.527476;-0.081657;46;7834;0.543;0.6625;[4];-6.65;[0];0.0397;0.291;0.0002075;0.158;0.262;219497.5;[4]
949;5afaf087f4259d0004b0e7eb;19/4/2018 0:00;19/4/2018 18:00;Aquilo with Scott Quinn at Oval Space (April 19, 2018);0.01898;19:00:00;Concert;http://www.songkick.com/concerts/31893534-aquilo-at-oval-space?utm_source=47927&utm_medium=partner;Thursday;51.5331547;-0.0592616;54;142383;0.459;0.439;[1];-9.243;[1];0.0399;0.515;0.00192;0.106;0.195;206595.6667;[4]
1012;5afaf138f4259d0004b0e888;19/4/2018 0:00;19/4/2018 18:00;Benjamin Yellowitz with DYVR and Alex Jayne at Miranda at the Ace Hotel (April 19, 2018);6.30E-05;19:00:00;Concert;http://www.songkick.com/concerts/33581414-benjamin-yellowitz-at-miranda-at-the-ace-hotel?utm_source=47927&utm_medium=partner;Thursday;51.5257443;-0.0772365;4;813;0.5875;0.3715;[4];-8.011;[0];0.05825;0.419;1.39E-05;0.1115;0.318;238604.7857;[4]
1119;5afaf29ff4259d0004b0e9a7;22/4/2018 0:00;22/4/2018 14:00;The Pretty Things at New Cross Inn (April 22, 2018);0.00484;15:00:00;Concert;http://www.songkick.com/concerts/32184009-pretty-things-at-new-cross-inn?utm_source=47927&utm_medium=partner;Sunday;51.4755797;-0.0382298;39;32307;0.5685;0.6735;[2];-10.144;[1];0.051;0.101;0.000533;0.247;0.704;196083.9;[4]
1200;5afaf3b7f4259d0004b0ea7c;6/5/2018 0:00;6/5/2018 17:00;Matt Holubowski with BATTS, Shrimp Eyes, RYD, and 1 more… at Notting Hill Arts Club (May 6, 2018);0.000569;18:00:00;Concert;http://www.songkick.com/concerts/33453099-matt-holubowski-at-notting-hill-arts-club?utm_source=47927&utm_medium=partner;Sunday;51.5093651;-0.1945393;33;13984;0.455;0.386;[4];-10.079;[1];0.0365;0.463;0.00382;0.121;0.174;227197.08;[4]
1236;5afaf41ff4259d0004b0ead9;7/5/2018 0:00;7/5/2018 18:00;Lightning Bolt with The Body and Sex Swing at The Garage (May 7, 2018);0.007019;19:00:00;Concert;http://www.songkick.com/concerts/32783094-lightning-bolt-at-garage?utm_source=47927&utm_medium=partner;Monday;51.5466583;-0.1040639;33;35972;0.2595;0.8865;[1];-2.927;[1];0.1215;3.57E-05;0.7195;0.147;0.2645;297176.0385;[4]
1264;5afaf481f4259d0004b0eb23;8/5/2018 0:00;8/5/2018 18:30;Iceage with Pardans at Scala (May 8, 2018);0.012173;19:30:00;Concert;http://www.songkick.com/concerts/31998534-iceage-at-scala?utm_source=47927&utm_medium=partner;Tuesday;51.5309284;-0.1202729;32;32549;0.233;0.891;[0];-4.881;[1];0.0766;0.00162;1.45E-05;0.144;0.333;240541.1579;[4]
1276;5afaf4acf4259d0004b0eb41;8/5/2018 0:00;8/5/2018 18:00;Gabrielle at The Jazz Cafe (May 8, 2018);0.029458;19:00:00;Concert;http://www.songkick.com/concerts/32969834-gabrielle-at-jazz-cafe?utm_source=47927&utm_medium=partner;Tuesday;51.5387092;-0.1430815;64;359986;0.4685;0.426;[0];-9.1545;[1];0.03765;0.671;1.68E-06;0.1055;0.275;220888.3;[4]
1325;5afaf532f4259d0004b0ebaf;9/5/2018 0:00;9/5/2018 18:30;Grails at Bush Hall (May 9, 2018);0.003607;19:30:00;Concert;http://www.songkick.com/concerts/32767254-grails-at-bush-hall?utm_source=48622&utm_medium=partner;Wednesday;51.5062847;-0.2314873;37;17836;0.275;0.499;[5];-10.5965;[1];0.0336;0.3085;0.8995;0.1345;0.1165;308752.9;[4]
1346;5afaf56cf4259d0004b0ebe3;9/5/2018 0:00;9/5/2018 18:00;Miriam Bryant at The Social (May 9, 2018);0.010391;19:00:00;Concert;http://www.songkick.com/concerts/33510579-miriam-bryant-at-social?utm_source=48622&utm_medium=partner;Wednesday;51.5172521;-0.1407694;60;83557;0.608;0.7445;[6];-6.126;[1];0.0445;0.00946;0.00119;0.114;0.2635;225707.5;[4]
1414;5afcd4634054df00043ae4ae;23/5/2018 0:00;23/5/2018 18:00;Car Seat Headrest at Roundhouse (May 23, 2018);0.019546;19:00:00;Concert;http://www.songkick.com/concerts/32411924-car-seat-headrest-at-roundhouse?utm_source=47747&utm_medium=partner;Wednesday;51.5429551;-0.1491962;61;127813;0.4985;0.603;[2];-7.3;[1];0.0399;0.0127;0.01495;0.122;0.325;360787.8;[4]
1419;5afcd4714054df00043ae4b7;23/5/2018 0:00;23/5/2018 18:00;Ben Folds with Matt Holubowski at Barbican Centre (May 23, 2018);0.075016;19:00:00;Concert;http://www.songkick.com/concerts/32592494-ben-folds-at-barbican-centre?utm_source=47747&utm_medium=partner;Wednesday;51.5198644;-0.0916989;46;156896;0.4475;0.413;[0];-9.9275;[1];0.03655;0.596;0.00084;0.121;0.2585;258351.8;[4]
1486;5afcd5374054df00043ae54b;24/5/2018 0:00;24/5/2018 18:00;Unknown Mortal Orchestra with Makeness at Roundhouse (May 24, 2018);0.058674;19:00:00;Concert;http://www.songkick.com/concerts/32587474-unknown-mortal-orchestra-at-roundhouse?utm_source=47927&utm_medium=partner;Thursday;51.5429551;-0.1491962;51;289010;0.7095;0.6315;[0];-8.2055;[1];0.05245;0.04515;0.175;0.1465;0.5485;258668.1;[4]
1491;5afcd5454054df00043ae556;24/5/2018 0:00;24/5/2018 18:30;Noah Kahan at Omeara (May 24, 2018);0.003465;19:30:00;Concert;http://www.songkick.com/concerts/32765709-noah-kahan-at-omeara?utm_source=47927&utm_medium=partner;Thursday;51.5041429;-0.094603;69;35209;0.696;0.526;[1];-6.9145;[1];0.0493;0.3705;0;0.1465;0.3785;202237.3;[4]
1528;5afcd5ba4054df00043ae5ae;24/5/2018 0:00;24/5/2018 18:00;The Wholls with The Sons, The Strawberries, The Freakouts, and 1 more… at Nambucca (May 24, 2018);0.000795;19:00:00;Concert;http://www.songkick.com/concerts/33608624-wholls-at-nambucca?utm_source=48622&utm_medium=partner;Thursday;51.5609729;-0.1236348;17.5;43282;0.553;0.681;[4];-7.46;[1];0.0499;0.0153;3.64E-05;0.118;0.416;220174.28;[4]
1582;5aff786384d273000431fe5c;25/5/2018 0:00;25/5/2018 18:30;Magnus Carlson with French Boutik, Fay Hallam, and DJ Dave Edwards at 100 Club (May 25, 2018);0.001364;19:30:00;Concert;http://www.songkick.com/concerts/32505574-magnus-carlson-at-100-club?utm_source=48622&utm_medium=partner;Friday;51.5160992;-0.1351725;7;11753;0.514;0.698;[2];-7.0605;[1];0.0366;0.10025;0.000473;0.133;0.645;211961;[4]
1586;5aff786e84d273000431fe66;25/5/2018 0:00;;Deerhunter at KOKO (May 25, 2018);0.080166;;Concert;http://www.songkick.com/concerts/32657939-deerhunter-at-koko?utm_source=48622&utm_medium=partner;Friday;51.534617;-0.138338;57;173336;0.5335;0.8105;[4];-6.69;[1];0.0364;0.02835;0.4955;0.2685;0.539;257395.9;[4]
1588;5aff787784d273000431fe6b;25/5/2018 0:00;25/5/2018 18:00;Natacha Atlas with Transglobal Underground and The Odd Beats at Under the Bridge (May 25, 2018);0.005607;19:00:00;Concert;http://www.songkick.com/concerts/32751964-natacha-atlas-at-under-the-bridge?utm_source=48622&utm_medium=partner;Friday;51.4773313;-0.2017231;33;27344;0.6105;0.7165;[2];-8.4605;[0];0.04045;0.0652;0.0236;0.172;0.4515;294323.5;[4]
1613;5aff78cd84d273000431feab;25/5/2018 0:00;25/5/2018 18:00;Courts with Hows Harry and Smooth Ends at Hoxton Square Bar & Kitchen (May 25, 2018);0.000445;19:00:00;Concert;http://www.songkick.com/concerts/33174229-courts-at-hoxton-square-bar-and-kitchen?utm_source=48622&utm_medium=partner;Friday;51.527476;-0.081657;26;93950;0.554;0.776;[7];-6.086;[1];0.0346;0.0225;0.00233;0.166;0.548;212092.2609;[4]
1653;5aff794e84d273000431ff09;25/5/2018 0:00;25/5/2018 22:00;Black Lips at The Garage (May 25, 2018);0.052354;23:00:00;Concert;http://www.songkick.com/concerts/33790899-black-lips-at-garage?utm_source=47927&utm_medium=partner;Friday;51.5466583;-0.1040639;49;92194;0.3825;0.7975;[0];-5.448;[1];0.04935;0.012805;0.00015061;0.2965;0.577;177900.9;[4]
1679;5aff79a684d273000431ff4a;26/5/2018 0:00;26/5/2018 17:30;Brigade and Slaves to Gravity with Phoenix Calling at O2 Academy Islington (May 26, 2018);0.000535;18:30:00;Concert;http://www.songkick.com/concerts/32243044-brigade-at-o2-academy-islington?utm_source=47747&utm_medium=partner;Saturday;51.5345836;-0.1059202;8;8857;0.424;0.8615;[1];-5.9175;[1];0.0526;0.0005305;0.001032;0.1885;0.2885;220350.7667;[4]
1761;5b00c8af63800d0004c40d13;22/5/2018 0:00;22/5/2018 19:00;The Snivellers, Worms, Sweetheart, and Terra Soror at Stag's Head (May 22, 2018);0.00013;20:00:00;Concert;http://www.songkick.com/concerts/33999459-snivellers-at-stags-head?utm_source=48622&utm_medium=partner;Tuesday;51.5364126;-0.0808195;28.5;5973;0.5945;0.5175;[9];-6.649;[1];0.03055;0.5475;0.000534;0.1315;0.5045;234043.9;[4]
1767;5b00c8cd63800d0004c40d1f;27/5/2018 0:00;27/5/2018 18:00;Ben Folds with Matt Holubowski at Barbican Centre (May 27, 2018);0.076073;19:00:00;Concert;http://www.songkick.com/concerts/31933844-ben-folds-at-barbican-centre?utm_source=48622&utm_medium=partner;Sunday;51.5198644;-0.0916989;46;157186;0.4475;0.413;[0];-9.9275;[1];0.03655;0.596;0.00084;0.121;0.2585;258351.8;[4]
1781;5b00c93d63800d0004c40d63;27/5/2018 0:00;27/5/2018 17:00;Rosetta with Maudlin and Mantis (Belgium) at The Underworld (May 27, 2018);0.002474;18:00:00;Concert;http://www.songkick.com/concerts/33040469-rosetta-at-underworld?utm_source=48622&utm_medium=partner;Sunday;51.538488;-0.142103;34;28148;0.516;0.753;[9];-6.424;[1];0.036;0.0368;0.00344;0.116;0.374;273217.0667;[4]
1875;5b036bdae926df00044b2f9e;29/5/2018 0:00;29/5/2018 18:30;Superchunk with Oblivians at Student Central (ULU) (May 29, 2018);0.012251;19:30:00;Concert;http://www.songkick.com/concerts/32410404-superchunk-at-student-central?utm_source=47747&utm_medium=partner;Tuesday;51.5214099;-0.1302396;37.5;39926;0.4105;0.975;[9];-4.7775;[1];0.05565;0.0308;0.0008185;0.188;0.5845;180540.2;[4]
1889;5b036c01e926df00044b2fbb;29/5/2018 0:00;29/5/2018 18:00;Daniel Docherty at Servant Jazz Quarters (May 29, 2018);0.000291;19:00:00;Concert;http://www.songkick.com/concerts/33340629-daniel-docherty-at-servant-jazz-quarters?utm_source=47747&utm_medium=partner;Tuesday;51.5486354;-0.0767334;33;3540;0.4425;0.441;[8];-11.4365;[1];0.03525;0.598;0.000294;0.1135;0.2065;302926.5;[4]
1905;5b036c28e926df00044b2fd8;29/5/2018 0:00;29/5/2018 18:00;Clap Your Hands Say Yeah with Penelope Isles at The Victoria, Dalston (May 29, 2018);0.047611;19:00:00;Concert;http://www.songkick.com/concerts/33790769-clap-your-hands-say-yeah-at-victoria-dalston?utm_source=47747&utm_medium=partner;Tuesday;51.5457871;-0.0697505;28.5;84516;0.4455;0.791;[2];-6.125;[1];0.05345;0.005675;0.006675;0.131;0.4425;246177.9167;[4]
0;5af9c6dc0cc9ab0004e227d1;14/5/2018 0:00;14/5/2018 18:00;Frank Turner with Seán McGowan and Get Cape. Wear Cape. Fly at Roundhouse (May 14, 2018);0.050308;19:00:00;Concert;http://www.songkick.com/concerts/31245569-frank-turner-at-roundhouse?utm_source=48622&utm_medium=partner;Monday;51.5429551;-0.1491962;32;223035;0.562;0.6725;[9];-6.7435;[1];0.0408;0.1299;5.05E-07;0.121;0.5545;215185.4;[4]
4;5af9c6eb0cc9ab0004e227db;14/5/2018 0:00;14/5/2018 18:30;Gary Lucas and Ed Laurie at Bush Hall (May 14, 2018);0.000439;19:30:00;Concert;http://www.songkick.com/concerts/32192284-gary-lucas-at-bush-hall?utm_source=48622&utm_medium=partner;Monday;51.5062847;-0.2314873;13;1316;0.4655;0.368;[7];-11.98;[1];0.03435;0.7545;0.00607;0.1225;0.309;279198.95;[4]
5;5af9c6ed0cc9ab0004e227dd;14/5/2018 0:00;14/5/2018 18:30;Nils Lofgren at G Live (May 14, 2018);0.005234;19:30:00;Concert;http://www.songkick.com/concerts/32454499-nils-lofgren-at-g-live?utm_source=48622&utm_medium=partner;Monday;51.2486437;-0.5541293;41;23260;0.5285;0.422;[0];-11.222;[0];0.0368;0.718;0.001686;0.6745;0.588;268126.8;[4]
9;5af9c6f60cc9ab0004e227e6;14/5/2018 0:00;;Birds of Chicago at The Lexington (May 14, 2018);0.000635;;Concert;http://www.songkick.com/concerts/32839319-birds-of-chicago-at-lexington?utm_source=48622&utm_medium=partner;Monday;51.5316567;-0.1114451;34;4761;0.625;0.3005;[4];-10.331;[1];0.04015;0.6615;5.18E-05;0.1095;0.4045;233645.4;[4]
16;5af9c70a0cc9ab0004e227f7;14/5/2018 0:00;14/5/2018 18:30;David Sinclair Four with Maaike Siegerist at The Social (May 14, 2018);1.20E-05;19:30:00;Concert;http://www.songkick.com/concerts/33264169-david-sinclair-four-at-social?utm_source=48622&utm_medium=partner;Monday;51.5172521;-0.1407694;0;55;0.521;0.124;[2];-14.679;[0];0.03945;0.8655;0.000131815;0.119;0.242;190796.4;[4]
21;5af9c7190cc9ab0004e22802;14/5/2018 0:00;;The RPMs, The Lion and the Wolf, and Rob Lynch at Roundhouse (May 14, 2018);0.00051;;Concert;http://www.songkick.com/concerts/33451594-rpms-at-roundhouse?utm_source=48622&utm_medium=partner;Monday;51.5429551;-0.1491962;18;3320;0.5185;0.701;[5];-6.485;[1];0.0352;0.07765;1.71E-05;0.1425;0.468;203825.2667;[4]
43;5af9c75d0cc9ab0004e2283b;15/5/2018 0:00;15/5/2018 19:00;Allan Taylor at The Ram Club (May 15, 2018);0.000236;20:00:00;Concert;http://www.songkick.com/concerts/32389524-allan-taylor-at-ram-club?utm_source=47927&utm_medium=partner;Tuesday;51.3855394;-0.3313172;29;1975;0.494;0.371;[11];-12.7015;[0];0.03;0.748;1.31E-05;0.117;0.326;280164.1;[4]
44;5af9c7600cc9ab0004e2283e;15/5/2018 0:00;15/5/2018 18:00;La Yegros with Malphino at The Jazz Cafe (May 15, 2018);0.001825;19:00:00;Concert;http://www.songkick.com/concerts/32394614-la-yegros-at-jazz-cafe?utm_source=47927&utm_medium=partner;Tuesday;51.5387092;-0.1430815;36.5;24441;0.7165;0.6475;[7];-6.8635;[0];0.0521;0.21;0.001491;0.105;0.8025;225608.85;[4]
48;5af9c76b0cc9ab0004e22848;15/5/2018 0:00;15/5/2018 18:00;Mary Chapin Carpenter with Emily Barker at Barbican Centre (May 15, 2018);0.015776;19:00:00;Concert;http://www.songkick.com/concerts/32653209-mary-chapin-carpenter-at-barbican-centre?utm_source=47927&utm_medium=partner;Tuesday;51.5198644;-0.0916989;38;62489;0.6245;0.525;[9];-9.0355;[1];0.0354;0.556;5.56E-05;0.1105;0.605;234007.35;[4]
49;5af9c76f0cc9ab0004e2284b;15/5/2018 0:00;15/5/2018 18:30;The Saxophones with Protection Spells at The Slaughtered Lamb (May 15, 2018);0.00035;19:30:00;Concert;http://www.songkick.com/concerts/32675404-saxophones-at-slaughtered-lamb?utm_source=47927&utm_medium=partner;Tuesday;51.5233496;-0.1011681;;;;;;;;;;;;;;
54;5af9c77c0cc9ab0004e22856;15/5/2018 0:00;15/5/2018 18:30;Emily Barker at Barbican Centre (May 15, 2018) (CANCELLED) ;0.000825;19:30:00;Concert;http://www.songkick.com/concerts/32750344-emily-barker-at-barbican-centre?utm_source=47927&utm_medium=partner;Tuesday;51.5198644;-0.0916989;29;7251;0.619;0.269;[2];-9.691;[1];0.0324;0.5645;0.00011575;0.1135;0.272;227488;[4]
56;5af9c7800cc9ab0004e2285a;15/5/2018 0:00;;Bold Tendencies 2018 2018 (CANCELLED) ;0.000326;;Festival;http://www.songkick.com/festivals/2220779-bold-tendencies-2018/id/32823504-bold-tendencies-2018-2018?utm_source=47927&utm_medium=partner;Tuesday;51.5073509;-0.1277583;24;1232;0.469;0.4125;[2];-11.4025;[0];0.03805;0.413;0.022613;0.1109;0.2755;345522;[3]
62;5af9c78f0cc9ab0004e22867;15/5/2018 0:00;;Benjamin Folke Thomas at Green Note (May 15, 2018);0.000152;;Concert;http://www.songkick.com/concerts/33084294-benjamin-folke-thomas-at-green-note?utm_source=47927&utm_medium=partner;Tuesday;51.5374217;-0.1456995;10;477;0.68;0.709;[0];-7.81;[1];0.0333;0.5965;0.000588;0.138;0.4945;243572.3;[4]
63;5af9c7910cc9ab0004e22869;15/5/2018 0:00;15/5/2018 18:30;Snail Mail at Oslo Hackney (May 15, 2018);0.001247;19:30:00;Concert;http://www.songkick.com/concerts/33095839-snail-mail-at-oslo-hackney?utm_source=47927&utm_medium=partner;Tuesday;51.5479818;-0.0575201;50;21948;0.459;0.6785;[4];-10.8085;[1];0.0329;0.39;0.659;0.109;0.3485;279140;[4]
81;5af9c7c60cc9ab0004e22893;15/5/2018 0:00;;The Leaf Library at The Lexington (May 15, 2018);0.000126;;Concert;http://www.songkick.com/concerts/33449334-leaf-library-at-lexington?utm_source=47927&utm_medium=partner;Tuesday;51.5316567;-0.1114451;4;596;0.449;0.4005;[0];-12.498;[1];0.03155;0.697;0.841;0.11;0.1082;313200.5;[4]
85;5af9c7d00cc9ab0004e2289b;15/5/2018 0:00;;William The Conqueror at Half Moon, Putney (May 15, 2018);9.50E-05;;Concert;http://www.songkick.com/concerts/33558634-william-the-conqueror-at-half-moon-putney?utm_source=47927&utm_medium=partner;Tuesday;51.4678461;-0.2217681;13;758;0.4275;0.5555;[9];-9.697;[1];0.04455;0.3635;0.009575;0.09115;0.4745;271807.2;[4]
91;5af9d773985cfc00044f816c;15/5/2018 0:00;15/5/2018 18:00;Bodega at The Social (May 15, 2018);0.000605;19:00:00;Concert;http://www.songkick.com/concerts/33660404-bodega-at-social?utm_source=47747&utm_medium=partner;Tuesday;51.5172521;-0.1407694;44;26444;0.5665;0.651;[8];-7.371;[0];0.221;0.2255;0;0.2655;0.2925;221668.7;[4]
93;5af9d778985cfc00044f8171;15/5/2018 0:00;;Elizabete Bal?us with Kate Arnold at The Windmill, Brixton (May 15, 2018);1.50E-05;;Concert;http://www.songkick.com/concerts/33751449-elizabete-balcus-at-windmill-brixton?utm_source=47747&utm_medium=partner;Tuesday;51.454073;-0.1223363;;;;;;;;;;;;;;
105;5af9d794985cfc00044f818b;16/5/2018 0:00;16/5/2018 19:00;Freya Ridings and Ray LaMontagne at Eventim Apollo (May 16, 2018);0.129992;20:00:00;Concert;http://www.songkick.com/concerts/31945554-freya-ridings-at-eventim-apollo?utm_source=48622&utm_medium=partner;Wednesday;51.4908747;-0.2252653;61.5;558316;0.4;0.323;[6];-8.4395;[1];0.03315;0.5965;0.0002675;0.1595;0.1435;253207.15;[4]
112;5af9d7a9985cfc00044f819b;16/5/2018 0:00;16/5/2018 19:00;Lisa LeBlanc at Sebright Arms (May 16, 2018);0.00154;20:00:00;Concert;http://www.songkick.com/concerts/32788894-lisa-leblanc-at-sebright-arms?utm_source=48622&utm_medium=partner;Wednesday;51.5320226;-0.0631162;40;14763;0.5435;0.46;[0];-7.1515;[1];0.0408;0.563;2.23E-05;0.1085;0.55;206821.2;[4]
120;5af9d7c5985cfc00044f81b2;16/5/2018 0:00;;Circuit Des Yeux at Barbican Centre (May 16, 2018);0.000782;;Concert;http://www.songkick.com/concerts/32965389-circuit-des-yeux-at-barbican-centre?utm_source=48622&utm_medium=partner;Wednesday;51.5198644;-0.0916989;25;5369;0.2535;0.4075;[1];-10.345;[0];0.034;0.788;0.333;0.111;0.06105;267400;[3]
129;5afab985dcab560004a0af3c;16/5/2018 0:00;16/5/2018 19:00;Bodega at The Lock Tavern (May 16, 2018);0.000533;20:00:00;Concert;http://www.songkick.com/concerts/33222339-bodega-at-lock-tavern?utm_source=48622&utm_medium=partner;Wednesday;51.5431173;-0.1484239;44;26467;0.5665;0.651;[8];-7.371;[0];0.221;0.2255;0;0.2655;0.2925;221668.7;[4]
131;5afab98cdcab560004a0af42;16/5/2018 0:00;16/5/2018 18:30;Haley Heynderickx with Jealous Of The Birds at The Islington (May 16, 2018);0.000532;19:30:00;Concert;http://www.songkick.com/concerts/33399929-haley-heynderickx-at-islington?utm_source=48622&utm_medium=partner;Wednesday;51.5344315;-0.1087937;41;13526;0.538;0.351;[10];-10.639;[1];0.03575;0.7885;0.002647;0.1095;0.2505;212883.75;[4]
134;5afab994dcab560004a0af4a;16/5/2018 0:00;16/5/2018 18:30;Meiko at The Bedford (May 16, 2018);0.018926;19:30:00;Concert;http://www.songkick.com/concerts/33435804-meiko-at-bedford?utm_source=48622&utm_medium=partner;Wednesday;51.4420906;-0.1490311;46;46402;0.6245;0.5195;[0];-7.32;[1];0.03185;0.628;1.29E-05;0.1085;0.524;208551.1;[4]
144;5afab9afdcab560004a0af60;16/5/2018 0:00;;The Lords of Thyme with Bonnie Dobson at Betsy Trotwood (May 16, 2018);0.000742;;Concert;http://www.songkick.com/concerts/33542494-lords-of-thyme-at-betsy-trotwood?utm_source=48622&utm_medium=partner;Wednesday;51.5233647;-0.1081335;4.5;53;0.412;0.438;[4];-9.337;[1];0.0285;0.198;6.82E-06;0.158;0.331;180820.5455;[4]
150;5afab9bfdcab560004a0af6d;16/5/2018 0:00;16/5/2018 19:00;Hejira and Tawiah with Fran & Flora at Kings Place (May 16, 2018);0.001645;20:00:00;Concert;http://www.songkick.com/concerts/33659314-hejira-at-kings-place?utm_source=48622&utm_medium=partner;Wednesday;51.534649;-0.122138;16.5;1810;0.5685;0.4205;[9];-10.8315;[1];0.03725;0.4475;0.0127;0.131;0.2365;282525.55;[4]
153;5afab9c9dcab560004a0af75;16/5/2018 0:00;;Niall Kelly at The Blues Kitchen - Brixton (May 16, 2018);2.50E-05;;Concert;http://www.songkick.com/concerts/33725149-niall-kelly-at-blues-kitchen-brixton?utm_source=47927&utm_medium=partner;Wednesday;51.4606163;-0.1192565;1;93;0.459;0.564;[4];-8.0965;[1];0.03025;0.3115;0.001725;0.193;0.393;230485.6;[4]
165;5afab9e8dcab560004a0af91;17/5/2018 0:00;17/5/2018 19:00;Lankum at Round Chapel Old School Rooms (May 17, 2018);0.000342;20:00:00;Concert;http://www.songkick.com/concerts/31832439-lankum-at-round-chapel-old-school-rooms?utm_source=48622&utm_medium=partner;Thursday;51.5545023;-0.0486776;26;2494;0.289;0.211;[7];-8.607;[1];0.034;0.63;0;0.123;0.113;379249.5556;[4]
166;5afab9f1dcab560004a0af97;17/5/2018 0:00;17/5/2018 18:00;I'm With Her, Sara Watkins, Sarah Jarosz, Aoife O'Donovan, and 1 more… at Union Chapel (May 17, 2018);0.013517;19:00:00;Concert;http://www.songkick.com/concerts/31860294-im-with-her-at-union-chapel?utm_source=48622&utm_medium=partner;Thursday;51.5443277;-0.1028893;45;121941;0.488;0.28;[1];-10.496;[1];0.0346;0.808;7.86E-05;0.11;0.327;223601.7209;[4]
170;5afab9fcdcab560004a0af9f;17/5/2018 0:00;17/5/2018 19:00;Ray LaMontagne at Eventim Apollo (May 17, 2018);0.129992;20:00:00;Concert;http://www.songkick.com/concerts/32076839-ray-lamontagne-at-eventim-apollo?utm_source=48622&utm_medium=partner;Thursday;51.4908747;-0.2252653;67;546713;0.4945;0.3735;[7];-10.3395;[1];0.033;0.317;0.000212;0.1445;0.3625;281614.9;[4]
173;5afaba05dcab560004a0afa6;17/5/2018 0:00;17/5/2018 18:30;The Rails at 100 Club (May 17, 2018);0.000425;19:30:00;Concert;http://www.songkick.com/concerts/32284649-rails-at-100-club?utm_source=48622&utm_medium=partner;Thursday;51.5160992;-0.1351725;0;83;0.4825;0.815;[7];-7.009;[1];0.0286;0.009145;6.47E-05;0.1145;0.561;216701.2;[4]
180;5afaba17dcab560004a0afb6;17/5/2018 0:00;17/5/2018 18:00;BØRNS at KOKO (May 17, 2018);0.066154;19:00:00;Concert;http://www.songkick.com/concerts/32576639-borns-at-koko?utm_source=48622&utm_medium=partner;Thursday;51.534617;-0.138338;70;500779;0.6135;0.6695;[6];-5.993;[1];0.05205;0.0291;0.000397;0.1075;0.475;225264;[4]
184;5afaba26dcab560004a0afc3;17/5/2018 0:00;17/5/2018 18:30;London Symphony Orchestra and Michael Tilson Thomas at Barbican Centre (May 17, 2018);0.033964;19:30:00;Concert;http://www.songkick.com/concerts/32749919-london-symphony-orchestra-at-barbican-centre?utm_source=48622&utm_medium=partner;Thursday;51.5198644;-0.0916989;60;149542;0.289;0.211;[0];-19.0375;[1];0.04205;0.9285;0.871;0.11;0.1067;348944.75;[4]
187;5afaba31dcab560004a0afcc;17/5/2018 0:00;17/5/2018 19:30;Sam Brothers at The Troubadour (May 17, 2018);5.00E-06;20:30:00;Concert;http://www.songkick.com/concerts/32850954-sam-brothers-at-troubadour?utm_source=48622&utm_medium=partner;Thursday;51.4886945;-0.1919702;2;30;0.4345;0.261;[4];-11.155;[1];0.0331;0.897;6.37E-05;0.1145;0.2105;201597.4;[4]
191;5afaba39dcab560004a0afd3;17/5/2018 0:00;17/5/2018 18:00;Mary Gauthier at Kings Place (May 17, 2018);0.003829;19:00:00;Concert;http://www.songkick.com/concerts/32959109-mary-gauthier-at-kings-place?utm_source=48622&utm_medium=partner;Thursday;51.534649;-0.122138;42;11780;0.5425;0.2805;[9];-9.3485;[1];0.02845;0.516;0.001164;0.1095;0.313;295215.3;[4]
247;5afabad3dcab560004a0b058;18/5/2018 0:00;;Miranda Sykes at St Edith Hall, Kemsing (May 18, 2018);9.00E-05;;Concert;http://www.songkick.com/concerts/31983904-miranda-sykes-at-st-edith-hall-kemsing?utm_source=48622&utm_medium=partner;Friday;51.3058144;0.2304488;3;215;0.5745;0.3045;[2];-13.5585;[1];0.0368;0.824;3.72E-06;0.102;0.514;252468.8;[4]
251;5afabadcdcab560004a0b060;18/5/2018 0:00;18/5/2018 18:00;Trio Da Kali at Barbican Centre (May 18, 2018);7.20E-05;19:00:00;Concert;http://www.songkick.com/concerts/32052194-trio-da-kali-at-barbican-centre?utm_source=48622&utm_medium=partner;Friday;51.5198644;-0.0916989;30;2364;0.575;0.327;[0];-10.5195;[1];0.0361;0.899;0.02015;0.1075;0.5585;280577.3;[4]
256;5afabae6dcab560004a0b06a;18/5/2018 0:00;18/5/2018 18:00;Richard Digance at Fairkytes Arts Center (May 18, 2018);7.00E-05;19:00:00;Concert;http://www.songkick.com/concerts/32440254-richard-digance-at-fairkytes-arts-center?utm_source=48622&utm_medium=partner;Friday;51.5650145;0.2182053;10;348;0.5585;0.2835;[0];-15.8205;[1];0.03495;0.709;8.08E-06;0.1355;0.695;217315.9;[4]
262;5afabb01dcab560004a0b07e;18/5/2018 0:00;18/5/2018 18:30;Emma Stevens with Joey Costello and Connor Adams at The Slaughtered Lamb (May 18, 2018);0.002027;19:30:00;Concert;http://www.songkick.com/concerts/32642144-emma-stevens-at-slaughtered-lamb?utm_source=48622&utm_medium=partner;Friday;51.5233496;-0.1011681;10;3043;0.5515;0.4935;[6];-6.4755;[1];0.0372;0.224;0;0.1235;0.486;214728.3077;[4]
264;5afabb09dcab560004a0b084;18/5/2018 0:00;18/5/2018 18:00;Beans on Toast at The Clapham Grand (May 18, 2018);0.00319;19:00:00;Concert;http://www.songkick.com/concerts/32675409-beans-on-toast-at-clapham-grand?utm_source=48622&utm_medium=partner;Friday;51.4629923;-0.1693688;41;22188;0.59;0.4025;[6];-7.9495;[1];0.1036;0.753;0;0.1655;0.798;208999.4;[4]
265;5afabb0ddcab560004a0b086;18/5/2018 0:00;18/5/2018 17:30;Beans on Toast with Boss Caine at The Clapham Grand (May 18, 2018);0.003207;18:30:00;Concert;http://www.songkick.com/concerts/32675449-beans-on-toast-at-clapham-grand?utm_source=48622&utm_medium=partner;Friday;51.4629923;-0.1693688;25;22478;0.553;0.4025;[7];-8.271;[1];0.0413;0.7295;0;0.1405;0.5895;243462.45;[4]
268;5afabb14dcab560004a0b08b;18/5/2018 0:00;;Geoff Berner at Oval Tavern (May 18, 2018);0.000263;;Concert;http://www.songkick.com/concerts/32726714-geoff-berner-at-oval-tavern?utm_source=48622&utm_medium=partner;Friday;51.3781167;-0.0885305;13;902;0.5345;0.444;[0];-7.8325;[1];0.0345;0.2385;1.98E-06;0.129;0.5335;248960.4;[4]
272;5afabb26dcab560004a0b099;18/5/2018 0:00;18/5/2018 22:00;Art Department, Martin Buttrich, Nitin, Kevin Saunderson, and 2 more… at fabric (May 18, 2018);0.006861;23:00:00;Concert;http://www.songkick.com/concerts/32868499-art-department-at-fabric?utm_source=48622&utm_medium=partner;Friday;51.5195531;-0.1024779;33;118478;0.75;0.6985;[1];-9.764;[1];0.0532;0.007715;0.854;0.1005;0.335;431928.463;[4]
282;5afabb42dcab560004a0b0b1;18/5/2018 0:00;18/5/2018 16:00;Hannah Scott at Canopy Market (May 18, 2018);9.10E-05;17:00:00;Concert;http://www.songkick.com/concerts/33202429-hannah-scott-at-canopy-market?utm_source=48622&utm_medium=partner;Friday;51.5364789;-0.1242962;18;362;0.589;0.386;[0];-7.9005;[1];0.0306;0.668;0.0001303;0.112;0.262;198224.6;[4]
292;5afabb77dcab560004a0b0da;18/5/2018 0:00;18/5/2018 19:00;Avi Buffalo with Lowpines at St Pancras Old Church (May 18, 2018);0.014686;20:00:00;Concert;http://www.songkick.com/concerts/33304384-avi-buffalo-at-st-pancras-old-church?utm_source=48622&utm_medium=partner;Friday;51.5334728;-0.1286371;24;17326;0.484;0.651;[7];-7.708;[1];0.0321;0.4215;0.0579;0.1165;0.3645;248981.4;[4]
295;5afabb7edcab560004a0b0e0;18/5/2018 0:00;18/5/2018 18:00;Olivia Chaney at Handel & Hendrix in London (May 18, 2018);0.000389;19:00:00;Concert;http://www.songkick.com/concerts/33374714-olivia-chaney-at-handel-and-hendrix-in-london?utm_source=48622&utm_medium=partner;Friday;51.5129688;-0.1459446;27;2691;0.5165;0.08895;[10];-13.007;[1];0.03865;0.9255;2.34E-06;0.111;0.302;243741.5;[3]
332;5afabbf3dcab560004a0b13d;18/5/2018 0:00;18/5/2018 18:00;Piers Faccini with Jim Ghedi at Glengall Wharf Garden (May 18, 2018);0.003761;19:00:00;Concert;http://www.songkick.com/concerts/33825424-piers-faccini-at-glengall-wharf-garden?utm_source=48622&utm_medium=partner;Friday;51.481836;-0.071725;28;12857;0.46;0.222;[0];-14.073;[1];0.0375;0.804;0.122;0.116;0.196;265689.6471;[4]
337;5afabc00dcab560004a0b147;19/5/2018 0:00;19/5/2018 18:00;Susana Baca at Nell's Jazz & Blues Club (May 19, 2018);0.005549;19:00:00;Concert;http://www.songkick.com/concerts/30468484-susana-baca-at-nells-jazz-and-blues-club?utm_source=47747&utm_medium=partner;Saturday;51.4925872;-0.2071292;51;18695;0.68;0.4015;[0];-10.844;[0];0.06575;0.573;7.09E-05;0.0907;0.72;294205.4;[3]
340;5afabc0cdcab560004a0b14e;19/5/2018 0:00;;Trinity Folk Festival 2018;0.000902;;Festival;http://www.songkick.com/festivals/530209-trinity-folk/id/31760544-trinity-folk-festival-2018?utm_source=47747&utm_medium=partner;Saturday;51.2346851;-0.5742298;11.5;1352;0.47;0.284;[0];-12.041;[1];0.0368;0.818;7.49E-06;0.118;0.26;242690.24;[4]
343;5afabc17dcab560004a0b157;19/5/2018 0:00;19/5/2018 18:00;The Bluetones and The Gallerist with Miracle Glass Company and The Gallerys at O2 Shepherd's Bush Empire (May 19, 2018);0.01602;19:00:00;Concert;http://www.songkick.com/concerts/32095049-bluetones-at-o2-shepherds-bush-empire?utm_source=47747&utm_medium=partner;Saturday;51.503507;-0.2238407;13;34550;0.4045;0.775;[7];-6.3095;[1];0.0353;0.03095;6.41E-05;0.1765;0.419;235961.9444;[4]
351;5afabc35dcab560004a0b173;19/5/2018 0:00;19/5/2018 12:00;Annie Winter, Ben Joseph and The Lay Lows, Bernard Hoskin, Blake (UK), and 7 more… at The Monarch (May 19, 2018);4.50E-05;13:00:00;Concert;http://www.songkick.com/concerts/32480004-annie-winter-at-monarch?utm_source=47747&utm_medium=partner;Saturday;51.5429763;-0.1483958;0;159;0.5425;0.553;[7];-9.1685;[1];0.03305;0.306;0.0008075;0.1115;0.436;208127.7115;[4]
368;5afabc81dcab560004a0b1a4;19/5/2018 0:00;19/5/2018 17:00;Wode with Christgrinder, Sufferer, Auri, and 1 more… at The Unicorn (May 19, 2018) (CANCELLED) ;0.00012;18:00:00;Concert;http://www.songkick.com/concerts/32965229-wode-at-unicorn?utm_source=47747&utm_medium=partner;Saturday;51.548498;-0.1300157;20.5;9403;0.3235;0.9685;[7];-6.032;[0];0.10005;0.000244;0.1675;0.1165;0.0826;282544.9;[4]
399;5afabd20dcab560004a0b21a;19/5/2018 0:00;;Buriers and Peter Kernel at The Shacklewell Arms (May 19, 2018);0.000441;;Concert;http://www.songkick.com/concerts/33558224-buriers-at-shacklewell-arms?utm_source=48622&utm_medium=partner;Saturday;51.5517116;-0.0719982;17;2803;0.546;0.3955;[7];-11.008;[1];0.03425;0.5115;0.0448;0.1085;0.124;261477.8;[4]
409;5afabd3adcab560004a0b234;19/5/2018 0:00;;Tobias Ben Jacob with Josienne Clarke at The Harrison (May 19, 2018);0.000119;;Concert;http://www.songkick.com/concerts/33672404-tobias-ben-jacob-at-harrison?utm_source=48622&utm_medium=partner;Saturday;51.5276066;-0.1205514;25;2623;0.5005;0.3415;[7];-12.696;[1];0.03845;0.7595;0.003025;0.1055;0.2495;233484.9;[4]
417;5afabd65dcab560004a0b254;19/5/2018 0:00;19/5/2018 11:00;Firestations, Seán Mac Erlaine, and Hatchie at Union Chapel (May 19, 2018);0.000246;12:00:00;Concert;http://www.songkick.com/concerts/33714399-firestations-at-union-chapel?utm_source=48622&utm_medium=partner;Saturday;51.5443277;-0.1028893;10;5605;0.363;0.547;[2];-8.111;[1];0.0368;0.435;0.158;0.1125;0.2725;228724.0769;[4]
420;5afabd72dcab560004a0b25a;19/5/2018 0:00;19/5/2018 12:00;Anna Neale, Sour Kix, Emilia Quinn, Blind River, and 4 more… at Boileroom (May 19, 2018);1.20E-05;13:00:00;Concert;http://www.songkick.com/concerts/33728089-anna-neale-at-boileroom?utm_source=48622&utm_medium=partner;Saturday;51.2397042;-0.5738364;0;126;0.533;0.6365;[2];-7.846;[1];0.0337;0.195;2.15E-06;0.1145;0.365;223336;[4]
435;5afabd9adcab560004a0b27d;19/5/2018 0:00;;Geoff Berner at Balabam (May 19, 2018);0.000261;;Concert;http://www.songkick.com/concerts/33813154-geoff-berner-at-balabam?utm_source=48622&utm_medium=partner;Saturday;51.5771393;-0.0727381;13;902;0.5345;0.444;[0];-7.8325;[1];0.0345;0.2385;1.98E-06;0.129;0.5335;248960.4;[4]
452;5afabdd0dcab560004a0b2a9;20/5/2018 0:00;20/5/2018 18:00;Philharmonia Orchestra with Vladimir Ashkenazy, Pekka Kuusisto, David Butt Philip, and 3 more… at Royal Festival Hall, Southbank Centre (May 20, 2018);0.010224;19:00:00;Concert;http://www.songkick.com/concerts/32375659-philharmonia-orchestra-at-royal-festival-hall-southbank-centre?utm_source=48622&utm_medium=partner;Sunday;51.5033996;-0.117448;39;50020;0.248;0.128;[0];-18.667;[1];0.0405;0.928;0.727;0.117;0.0612;397577.0364;[4]
455;5afabdd8dcab560004a0b2ae;20/5/2018 0:00;20/5/2018 18:00;London Symphony Orchestra with Michael Tilson Thomas at Barbican Centre (May 20, 2018);0.033964;19:00:00;Concert;http://www.songkick.com/concerts/32750004-london-symphony-orchestra-at-barbican-centre?utm_source=48622&utm_medium=partner;Sunday;51.5198644;-0.0916989;60;149542;0.289;0.211;[0];-19.0375;[1];0.04205;0.9285;0.871;0.11;0.1067;348944.75;[4]
461;5afabde6dcab560004a0b2ba;20/5/2018 0:00;20/5/2018 18:30;Langhorne Slim with Tom Blackwell at Bush Hall (May 20, 2018);0.021536;19:30:00;Concert;http://www.songkick.com/concerts/33204179-langhorne-slim-at-bush-hall?utm_source=48622&utm_medium=partner;Sunday;51.5062847;-0.2314873;61;74470;0.5385;0.398;[11];-10.2855;[1];0.03525;0.845;0.0008315;0.109;0.5055;183362.5;[4]
467;5afabdf6dcab560004a0b2c8;20/5/2018 0:00;20/5/2018 18:00;Alice Phoebe Lou at Scala (May 20, 2018);0.001737;19:00:00;Concert;http://www.songkick.com/concerts/33371904-alice-phoebe-lou-at-scala?utm_source=48622&utm_medium=partner;Sunday;51.5309284;-0.1202729;47;33826;0.5245;0.3045;[9];-9.985;[0];0.03765;0.56;0.004365;0.0999;0.142;278974.1;[4]
471;5afabe00dcab560004a0b2d1;20/5/2018 0:00;;Middlemist Red and Bright Black at The Old Blue Last (May 20, 2018);0.000156;;Concert;http://www.songkick.com/concerts/33542119-middlemist-red-at-old-blue-last?utm_source=48622&utm_medium=partner;Sunday;51.5243593;-0.0801042;12;3316;0.479;0.886;[7];-5.257;[1];0.0879;0.0032;0.000382;0.11;0.411;242315.8421;[4]
479;5afabe2adcab560004a0b2ef;20/5/2018 0:00;20/5/2018 10:00;Aussie BBQ 2018;0.014524;11:00:00;Festival;http://www.songkick.com/festivals/839509-aussie-bbq/id/33656304-aussie-bbq-2018?utm_source=48622&utm_medium=partner;Sunday;51.527476;-0.081657;47.5;102042;0.504;0.6265;[2];-7.1435;[1];0.042;0.3635;9.24E-05;0.121;0.4075;197456.2273;[4]
496;5afabe57dcab560004a0b314;20/5/2018 0:00;;Elliott Morris and Jack Carrack at Elephant And Castle (May 20, 2018);0.000207;;Concert;http://www.songkick.com/concerts/33908029-elliott-morris-at-elephant-and-castle?utm_source=48622&utm_medium=partner;Sunday;51.4974742;-0.0989057;2;261;0.572;0.501;[1];-10.391;[1];0.0349;0.526;0.0003515;0.114;0.334;220157.2;[4]
498;5afabe5bdcab560004a0b318;21/5/2018 0:00;21/5/2018 18:30;Matthew and the Atlas at Village Underground (May 21, 2018);0.01096;19:30:00;Concert;http://www.songkick.com/concerts/32561264-matthew-and-the-atlas-at-village-underground?utm_source=48067&utm_medium=partner;Monday;51.5237877;-0.0780335;56;53116;0.5245;0.206;[2];-13.5635;[1];0.0342;0.887;0.01645;0.101;0.17;226060.1;[4]
501;5afabe63dcab560004a0b31f;21/5/2018 0:00;21/5/2018 18:00;Gizmo Varillas at The Lexington (May 21, 2018);0.000484;19:00:00;Concert;http://www.songkick.com/concerts/32835229-gizmo-varillas-at-lexington?utm_source=48067&utm_medium=partner;Monday;51.5316567;-0.1114451;44;3956;0.701;0.665;[4];-10.5325;[0];0.0422;0.7325;0.525;0.135;0.6875;178279.3;[4]
505;5afabe6ddcab560004a0b327;21/5/2018 0:00;21/5/2018 18:30;Peter Oren at The Islington (May 21, 2018);0.000134;19:30:00;Concert;http://www.songkick.com/concerts/33054474-peter-oren-at-islington?utm_source=48067&utm_medium=partner;Monday;51.5344315;-0.1087937;45;1579;0.5505;0.243;[4];-13.0455;[1];0.0314;0.706;0.0111;0.112;0.2825;190899.4;[4]
507;5afabe72dcab560004a0b32a;21/5/2018 0:00;21/5/2018 19:00;Avi Buffalo at St Pancras Old Church (May 21, 2018);0.014678;20:00:00;Concert;http://www.songkick.com/concerts/33150264-avi-buffalo-at-st-pancras-old-church?utm_source=48067&utm_medium=partner;Monday;51.5334728;-0.1286371;35;16677;0.4715;0.621;[7];-7.8535;[1];0.0326;0.383;0.07695;0.1215;0.345;256342.6;[4]
519;5afabe91dcab560004a0b342;21/5/2018 0:00;21/5/2018 18:30;M. Ward at Oslo Hackney (May 21, 2018);0.052618;19:30:00;Concert;http://www.songkick.com/concerts/33678609-m-ward-at-oslo-hackney?utm_source=48067&utm_medium=partner;Monday;51.5479818;-0.0575201;55;118983;0.5395;0.441;[2];-11.34;[1];0.03805;0.507;0.0165;0.1255;0.5045;184492.1;[4]
529;5afabeafdcab560004a0b35d;22/5/2018 0:00;;Nick Mulvey with TT (Theresa Wayman) at Royal Albert Hall (May 22, 2018);0.020719;;Concert;http://www.songkick.com/concerts/31963869-nick-mulvey-at-royal-albert-hall?utm_source=47927&utm_medium=partner;Tuesday;51.500786;-0.1781517;48.5;109096;0.576;0.569;[6];-7.888;[1];0.0327;0.586;0.00723;0.107;0.292;262491;[4]
532;5afabeb6dcab560004a0b363;22/5/2018 0:00;22/5/2018 18:30;Xylouris White at Cafe OTO (May 22, 2018);0.000792;19:30:00;Concert;http://www.songkick.com/concerts/32400839-xylouris-white-at-cafe-oto?utm_source=47927&utm_medium=partner;Tuesday;51.5469092;-0.0747739;23;3164;0.4345;0.3735;[9];-12.7035;[0];0.0351;0.47;0.14;0.103;0.333;261868.8;[4]
533;5afabebadcab560004a0b366;22/5/2018 0:00;22/5/2018 18:00;Josh T. Pearson with Erika Wennerstrom at Islington Assembly Hall (May 22, 2018);0.003567;19:00:00;Concert;http://www.songkick.com/concerts/32504994-josh-t-pearson-at-islington-assembly-hall?utm_source=47927&utm_medium=partner;Tuesday;51.5395158;-0.1024666;31;8222;0.434;0.659;[0];-6.17;[1];0.0374;0.0414;0.0148;0.13;0.229;317110.1579;[4]
543;5afabed7dcab560004a0b37d;22/5/2018 0:00;22/5/2018 18:00;Mikaela Davis with Christof van der Ven at The Lexington (May 22, 2018);0.00036;19:00:00;Concert;http://www.songkick.com/concerts/32255564-mikaela-davis-at-lexington?utm_source=47927&utm_medium=partner;Tuesday;51.5316567;-0.1114451;32;3318;0.444;0.361;[7];-10.065;[1];0.0296;0.697;0.0305;0.116;0.245;232493.9231;[4]
552;5afabeefdcab560004a0b38f;22/5/2018 0:00;22/5/2018 18:00;Of The Wand & The Moon and Dark Red Seed at The Underworld (May 22, 2018);0.000866;19:00:00;Concert;http://www.songkick.com/concerts/33239999-of-the-wand-and-the-moon-at-underworld?utm_source=47927&utm_medium=partner;Tuesday;51.538488;-0.142103;17;7679;0.344;0.557;[7];-8.359;[1];0.0344;0.0746;0.749;0.13;0.173;340657.0667;[4]
556;5afabf02dcab560004a0b39d;22/5/2018 0:00;22/5/2018 18:30;Kadija Kamara with Tiger Lion and Abi Wade at The Finsbury (May 22, 2018);0.000211;19:30:00;Concert;http://www.songkick.com/concerts/33343429-kadija-kamara-at-finsbury?utm_source=47927&utm_medium=partner;Tuesday;51.5718998;-0.0963439;12;1026;0.566;0.5005;[0];-9.455;[1];0.03595;0.556;0.00887;0.1335;0.2515;236031.9333;[4]
568;5afabf21dcab560004a0b3b6;22/5/2018 0:00;;NAPAEA at The Bedford (May 22, 2018);0;;Concert;http://www.songkick.com/concerts/33629489-napaea-at-bedford?utm_source=47927&utm_medium=partner;Tuesday;51.4420906;-0.1490311;3;117;0.4975;0.5405;[2];-6.53;[1];0.0314;0.1845;0;0.1155;0.2675;261174.9;[4]
575;5afabf35dcab560004a0b3c5;22/5/2018 0:00;22/5/2018 18:30;Alex The Astronaut and Kat Cunning at Servant Jazz Quarters (May 22, 2018);0.000963;19:30:00;Concert;http://www.songkick.com/concerts/33795029-alex-the-astronaut-at-servant-jazz-quarters?utm_source=47927&utm_medium=partner;Tuesday;51.5486354;-0.0767334;34;12961;0.519;0.718;[9];-6.904;[1];0.0475;0.131;3.40E-05;0.124;0.493;180279.5385;[4]
582;5afaec7df4259d0004b0e449;13/4/2018 0:00;13/4/2018 18:00;Epica with Oceans of Slumber and Myrkur at O2 Forum Kentish Town (April 13, 2018);0.016096;19:00:00;Concert;http://www.songkick.com/concerts/30883004-epica-at-o2-forum-kentish-town?utm_source=48067&utm_medium=partner;Friday;51.5521427;-0.1422245;44;373913;0.283;0.8415;[2];-5.4485;[0];0.04965;0.005855;0.0125;0.138;0.221;329678.4667;[4]
583;5afaec7ff4259d0004b0e44b;13/4/2018 0:00;13/4/2018 17:30;Arcade Fire at SSE Arena, Wembley (April 13, 2018);0.381179;18:30:00;Concert;http://www.songkick.com/concerts/30924724-arcade-fire-at-sse-arena-wembley?utm_source=48067&utm_medium=partner;Friday;51.5586053;-0.2803252;72;1239365;0.576;0.787;[0];-5.624;[1];0.0356;0.07525;0.0158;0.33;0.569;302367.9;[4]
593;5afaec99f4259d0004b0e464;13/4/2018 0:00;13/4/2018 18:00;Nathaniel Rateliff & The Night Sweats and Slim Cessna's Auto Club at O2 Shepherd's Bush Empire (April 13, 2018);0.02388;19:00:00;Concert;http://www.songkick.com/concerts/32126629-nathaniel-rateliff-and-the-night-sweats-at-o2-shepherds-bush-empire?utm_source=48067&utm_medium=partner;Friday;51.503507;-0.2238407;46.5;251007;0.4785;0.752;[2];-6.234;[1];0.04625;0.2145;0.0004745;0.126;0.5745;254313.2;[4]
600;5afaecacf4259d0004b0e477;13/4/2018 0:00;;Wizz Jones at The King's Head, Crouch End (April 13, 2018);0.000284;;Concert;http://www.songkick.com/concerts/32355269-wizz-jones-at-kings-head-crouch-end?utm_source=48067&utm_medium=partner;Friday;51.5779685;-0.1247534;17;905;0.5255;0.319;[2];-14.3585;[1];0.0347;0.8675;0.589;0.2295;0.4515;231333.4;[4]
605;5afaecbff4259d0004b0e487;13/4/2018 0:00;13/4/2018 17:00;Priests to Pilots with Ducking Punches, The Silver Bayonets, The Real McKoys, and 1 more… at Nightclub Kolis (April 13, 2018);0.000348;18:00:00;Concert;http://www.songkick.com/concerts/32463009-priests-to-pilots-at-nightclub-kolis?utm_source=48067&utm_medium=partner;Friday;51.5660276;-0.1350315;7;3041;0.423;0.857;[7];-5.817;[1];0.0501;0.00287;0.000208;0.19;0.398;215242.4694;[4]
608;5afaecc7f4259d0004b0e48f;13/4/2018 0:00;13/4/2018 19:00;The Lagan with Black Water County at The Star Inn (April 13, 2018);0.000182;20:00:00;Concert;http://www.songkick.com/concerts/32504924-lagan-at-star-inn?utm_source=48067&utm_medium=partner;Friday;51.2350142;-0.5748593;16;987;0.458;0.9245;[7];-3.792;[1];0.06435;0.0695;0.000261;0.1195;0.717;227912;[4]
609;5afaecc9f4259d0004b0e490;13/4/2018 0:00;13/4/2018 17:45;Josh T. Pearson at Rough Trade East (April 13, 2018);0.003665;18:45:00;Concert;http://www.songkick.com/concerts/32524159-josh-t-pearson-at-rough-trade-east?utm_source=48067&utm_medium=partner;Friday;51.521245;-0.0718398;31;6409;0.433;0.4585;[1];-9.9205;[1];0.0502;0.2196;0.00125;0.183;0.185;259914.5;[4]
610;5afaeccbf4259d0004b0e491;13/4/2018 0:00;13/4/2018 12:45;Josh T. Pearson at Rough Trade West (April 13, 2018);0.003665;13:45:00;Concert;http://www.songkick.com/concerts/32524389-josh-t-pearson-at-rough-trade-west?utm_source=48067&utm_medium=partner;Friday;51.5160198;-0.2045443;31;6409;0.433;0.4585;[1];-9.9205;[1];0.0502;0.2196;0.00125;0.183;0.185;259914.5;[4]
614;5afaecdbf4259d0004b0e49f;13/4/2018 0:00;;Ayanna Witter-Johnson at Cutty Sark (April 13, 2018);0.000259;;Concert;http://www.songkick.com/concerts/32580014-ayanna-witterjohnson-at-cutty-sark?utm_source=48067&utm_medium=partner;Friday;51.4814581;-0.0083094;14;701;0.739;0.27;[7];-7.449;[1];0.0605;0.757;2.48E-05;0.11;0.455;221339.5556;[4]
618;5afaece9f4259d0004b0e4aa;13/4/2018 0:00;13/4/2018 18:00;Speak, Brother with John Nicholas and Jules Rendell at Thousand Island (formerly Upstairs at The Garage) (April 13, 2018);8.40E-05;19:00:00;Concert;http://www.songkick.com/concerts/32673889-speak-brother-at-thousand-island?utm_source=48067&utm_medium=partner;Friday;51.5466983;-0.1038429;16;1167;0.4265;0.4545;[1];-9.3335;[1];0.0393;0.1075;0.000237;0.135;0.2465;223865.25;[4]
627;5afaed02f4259d0004b0e4c3;13/4/2018 0:00;13/4/2018 18:30;Winterfylleth with Nhor and Jo Quail at St Pancras Old Church (April 13, 2018);0.00114;19:30:00;Concert;http://www.songkick.com/concerts/32881409-winterfylleth-at-st-pancras-old-church?utm_source=48067&utm_medium=partner;Friday;51.5334728;-0.1286371;16;13251;0.408;0.2005;[4];-16.8555;[0];0.0446;0.9065;0.8795;0.103;0.07365;330840.7667;[4]
643;5afaed41f4259d0004b0e4f6;13/4/2018 0:00;;Niall Kelly at The Wine Tasting Shop (April 13, 2018);2.60E-05;;Concert;http://www.songkick.com/concerts/33077879-niall-kelly-at-wine-tasting-shop?utm_source=47927&utm_medium=partner;Friday;51.4444926;-0.1511521;1;93;0.459;0.564;[4];-8.0965;[1];0.03025;0.3115;0.001725;0.193;0.393;230485.6;[4]
662;5afaed73f4259d0004b0e527;13/4/2018 0:00;13/4/2018 18:30;Richard Walters at Omeara (April 13, 2018);0.002257;19:30:00;Concert;http://www.songkick.com/concerts/33356504-richard-walters-at-omeara?utm_source=47927&utm_medium=partner;Friday;51.5041429;-0.094603;43;6696;0.443;0.2835;[0];-11.079;[1];0.0375;0.637;0.0021355;0.10265;0.1625;211464.8;[4]
673;5afaed89f4259d0004b0e542;13/4/2018 0:00;13/4/2018 21:00;Gypsy Hill, Chavo, Kefi - ????, and DJ Kobayashi at Hootananny (April 13, 2018);0.000394;22:00:00;Concert;http://www.songkick.com/concerts/33495599-gypsy-hill-at-hootananny?utm_source=47927&utm_medium=partner;Friday;51.4602601;-0.115572;28;2200;0.723;0.59;[7];-9.385;[0];0.053;0.0625;0.796;0.108;0.695;218547.7391;[4]
696;5afaedc3f4259d0004b0e57b;14/4/2018 0:00;14/4/2018 18:30;Alasdair Roberts with Cunning Folk at The Wanstead Tap (April 14, 2018);0.001625;19:30:00;Concert;http://www.songkick.com/concerts/32636869-alasdair-roberts-at-wanstead-tap?utm_source=47927&utm_medium=partner;Saturday;51.5553533;0.0188303;10.5;2282;0.42;0.2705;[6];-12.7315;[1];0.03365;0.839;5.65E-07;0.105;0.28;304458.7;[4]
700;5afaedcff4259d0004b0e585;14/4/2018 0:00;;James Elkington at The Keep (April 14, 2018);0.000159;;Concert;http://www.songkick.com/concerts/32652899-james-elkington-at-keep?utm_source=47927&utm_medium=partner;Saturday;51.2342901;-0.5735434;27;1053;0.4815;0.3695;[4];-13.4945;[1];0.03615;0.8495;0.8855;0.113;0.467;203522;[4]
701;5afaedd3f4259d0004b0e588;14/4/2018 0:00;14/4/2018 16:00;Hannah Peel with Tubular Brass at Queen Elizabeth Hall, Southbank Centre (April 14, 2018);0.003156;17:00:00;Concert;http://www.songkick.com/concerts/32689534-hannah-peel-at-queen-elizabeth-hall-southbank-centre?utm_source=47927&utm_medium=partner;Saturday;51.5112139;-0.1198244;19.5;7828;0.356;0.34;[9];-14.008;[1];0.0398;0.731;0.798;0.0898;0.157;427619.3846;[4]
722;5afaee18f4259d0004b0e5c3;14/4/2018 0:00;14/4/2018 18:30;Victoria, Fabian Jack, and Rev (London) at Tooting Tram & Social (April 14, 2018);0.000583;19:30:00;Concert;http://www.songkick.com/concerts/33029204-victoria-at-tooting-tram-and-social?utm_source=47927&utm_medium=partner;Saturday;51.4267684;-0.1664878;30.5;313723;0.5015;0.7035;[0];-6.52;[1];0.0703;0.0552;5.65E-07;0.1019;0.4235;149329.4;[4]
751;5afaee6af4259d0004b0e60c;14/4/2018 0:00;14/4/2018 18:00;O'Flynn, Dan Shake, Krywald & Farrer, and Raw Silk at Hangar London Fields (April 14, 2018);0.000451;19:00:00;Concert;http://www.songkick.com/concerts/33466919-oflynn-at-hangar-london-fields?utm_source=47927&utm_medium=partner;Saturday;51.5388795;-0.0578761;25;8972;0.752;0.768;[0];-9.651;[1];0.0546;0.0424;0.603;0.109;0.524;355446.3333;[4]
760;5afaee7ff4259d0004b0e61b;15/4/2018 0:00;15/4/2018 18:00;Fairytape at Unknown venue (April 15, 2018);5.00E-06;19:00:00;Concert;http://www.songkick.com/concerts/31672339-fairytape-at-unknown-venue?utm_source=48067&utm_medium=partner;Sunday;51.5073509;-0.1277583;2;53;0.632;0.2955;[0];-8.815;[1];0.03685;0.7735;0;0.112;0.3025;207743;[4]
762;5afaee84f4259d0004b0e620;15/4/2018 0:00;15/4/2018 18:00;Peter Broderick with Hatis Noit at The Jazz Cafe (April 15, 2018);0.009782;19:00:00;Concert;http://www.songkick.com/concerts/31872739-peter-broderick-at-jazz-cafe?utm_source=48067&utm_medium=partner;Sunday;51.5387092;-0.1430815;35;37623;0.284;0.1745;[9];-15.2585;[1];0.04385;0.9555;0.805;0.108;0.085;318794;[4]
764;5afaee8af4259d0004b0e624;15/4/2018 0:00;15/4/2018 18:30;James Elkington with William Patrick Owen at The Islington (April 15, 2018);0.000174;19:30:00;Concert;http://www.songkick.com/concerts/32033929-james-elkington-at-islington?utm_source=48067&utm_medium=partner;Sunday;51.5344315;-0.1087937;14;1079;0.3445;0.3675;[4];-13.851;[1];0.0392;0.8245;0.5485;0.119;0.291;257936;[4]
781;5afaeebef4259d0004b0e651;15/4/2018 0:00;15/4/2018 16:30;Sophia Marshall, Rhiannon Scutt, Gitta de Ridder, Lyla Foy, and 2 more… at Green Note (April 15, 2018);0.001644;17:30:00;Concert;http://www.songkick.com/concerts/33007784-sophia-marshall-at-green-note?utm_source=48067&utm_medium=partner;Sunday;51.5374217;-0.1456995;15;10173;0.592;0.4465;[0];-9.2035;[1];0.0343;0.4665;0.0003335;0.107;0.3705;226365.8;[4]
789;5afaeecdf4259d0004b0e662;15/4/2018 0:00;15/4/2018 18:30;Hannah Scott at Sofar Sounds (April 15, 2018);9.10E-05;19:30:00;Concert;http://www.songkick.com/concerts/33102564-hannah-scott-at-sofar-sounds?utm_source=48067&utm_medium=partner;Sunday;51.5073509;-0.1277583;18;362;0.589;0.386;[0];-7.9005;[1];0.0306;0.668;0.0001303;0.112;0.262;198224.6;[4]
806;5afaeef1f4259d0004b0e688;15/4/2018 0:00;;Mick Turner at The Windmill, Brixton (April 15, 2018);0.000225;;Concert;http://www.songkick.com/concerts/33523954-mick-turner-at-windmill-brixton?utm_source=48067&utm_medium=partner;Sunday;51.454073;-0.1223363;12;463;0.3285;0.1665;[0];-17.737;[1];0.0352;0.7605;0.8275;0.121;0.154;174938.6;[4]
810;5afaeef9f4259d0004b0e68f;16/4/2018 0:00;16/4/2018 18:00;The Dead South with Del Suelo at The Garage (April 16, 2018);0.004364;19:00:00;Concert;http://www.songkick.com/concerts/31355249-dead-south-at-garage?utm_source=48067&utm_medium=partner;Monday;51.5466583;-0.1040639;30.5;105463;0.581;0.609;[9];-8.484;[1];0.0373;0.337;0.0086;0.12;0.585;212217.55;[4]
811;5afaeefbf4259d0004b0e691;16/4/2018 0:00;16/4/2018 18:00;The Salts at Croydon Folk Club (April 16, 2018);2.00E-05;19:00:00;Concert;http://www.songkick.com/concerts/31860349-salts-at-croydon-folk-club?utm_source=48067&utm_medium=partner;Monday;51.3672739;-0.0969447;4;55;0.695;0.662;[2];-8.1325;[1];0.03665;0.08825;7.94E-05;0.1225;0.6015;211045.4;[4]
812;5afaeefdf4259d0004b0e693;16/4/2018 0:00;16/4/2018 18:00;All the Luck in the World at The Islington (April 16, 2018);0.0036;19:00:00;Concert;http://www.songkick.com/concerts/31978819-all-the-luck-in-the-world-at-islington?utm_source=48067&utm_medium=partner;Monday;51.5344315;-0.1087937;45;16776;0.4665;0.36;[4];-12.561;[1];0.03295;0.717;0.009495;0.1615;0.24;235721.8;[4]
813;5afaef02f4259d0004b0e697;16/4/2018 0:00;16/4/2018 17:00;Primordial with Moonsorrow and Der Weg einer Freiheit at Islington Assembly Hall (April 16, 2018);0.002783;18:00:00;Concert;http://www.songkick.com/concerts/32076194-primordial-at-islington-assembly-hall?utm_source=48067&utm_medium=partner;Monday;51.5395158;-0.1024666;36;66992;0.202;0.888;[1];-7.9815;[0];0.07245;5.01E-05;0.675;0.154;0.0825;535933.3;[4]
814;5afaef06f4259d0004b0e69a;16/4/2018 0:00;;Bastille with To Kill a King at Royal Albert Hall (April 16, 2018);0.336614;;Concert;http://www.songkick.com/concerts/32212649-bastille-at-royal-albert-hall?utm_source=48067&utm_medium=partner;Monday;51.500786;-0.1781517;58;2601651;0.5485;0.7435;[5];-7.074;[1];0.05015;0.129;3.11E-05;0.1565;0.44;223622.95;[4]
818;5afaef16f4259d0004b0e6a5;16/4/2018 0:00;;Roxanne de Bastion at The Lexington (April 16, 2018);7.70E-05;;Concert;http://www.songkick.com/concerts/32615649-roxanne-de-bastion-at-lexington?utm_source=48067&utm_medium=partner;Monday;51.5316567;-0.1114451;6;456;0.487;0.294;[0];-10.5855;[1];0.03255;0.8105;0.004065;0.1195;0.2765;231000.1;[4]
827;5afaef27f4259d0004b0e6b7;16/4/2018 0:00;;Paper Beat Scissors at Empire Bar (April 16, 2018);0.000201;;Concert;http://www.songkick.com/concerts/33139674-paper-beat-scissors-at-empire-bar?utm_source=48067&utm_medium=partner;Monday;51.5455546;-0.055601;9;520;0.338;0.303;[11];-12.7605;[1];0.0308;0.8835;0.00586;0.1305;0.11;236724.7;[4]
830;5afaef2ef4259d0004b0e6be;16/4/2018 0:00;16/4/2018 18:30;Sonic Jesus with The Elephant Trip and thelightshines at Sebright Arms (April 16, 2018);0.000265;19:30:00;Concert;http://www.songkick.com/concerts/33166714-sonic-jesus-at-sebright-arms?utm_source=48067&utm_medium=partner;Monday;51.5320226;-0.0631162;10;1779;0.4235;0.538;[2];-8.4165;[1];0.035;0.0253;0.794;0.1395;0.197;263400.0625;[4]
839;5afaef49f4259d0004b0e6d6;17/4/2018 0:00;17/4/2018 18:30;Grant-Lee Phillips with Jarrod Dickenson at Bush Hall (April 17, 2018);0.005273;19:30:00;Concert;http://www.songkick.com/concerts/31793019-grantlee-phillips-at-bush-hall?utm_source=47927&utm_medium=partner;Tuesday;51.5062847;-0.2314873;27.5;12312;0.4755;0.4575;[7];-10.054;[1];0.03;0.5005;0.0003825;0.119;0.3925;227000.75;[4]
844;5afaef57f4259d0004b0e6e3;17/4/2018 0:00;17/4/2018 18:00;Laish with Gabriel Moreno at The Borderline (April 17, 2018);0.000571;19:00:00;Concert;http://www.songkick.com/concerts/32231589-laish-at-borderline?utm_source=47927&utm_medium=partner;Tuesday;51.5150865;-0.1305367;17.5;1291;0.485;0.3175;[0];-11.1665;[1];0.0394;0.825;0.001985;0.106;0.3455;222769.55;[4]
845;5afaef59f4259d0004b0e6e5;17/4/2018 0:00;17/4/2018 18:30;Jethro Tull at Royal Albert Hall (April 17, 2018);0.056306;19:30:00;Concert;http://www.songkick.com/concerts/32297769-jethro-tull-at-royal-albert-hall?utm_source=47927&utm_medium=partner;Tuesday;51.500786;-0.1781517;61;501842;0.5235;0.545;[0];-10.5575;[1];0.05365;0.0906;0.0004415;0.1915;0.683;260706.5;[4]
847;5afaef5df4259d0004b0e6e8;17/4/2018 0:00;;All the Luck in the World at The Islington (April 17, 2018);0.0036;;Concert;http://www.songkick.com/concerts/32504934-all-the-luck-in-the-world-at-islington?utm_source=47927&utm_medium=partner;Tuesday;51.5344315;-0.1087937;45;16776;0.4665;0.36;[4];-12.561;[1];0.03295;0.717;0.009495;0.1615;0.24;235721.8;[4]
851;5afaef66f4259d0004b0e6f1;17/4/2018 0:00;17/4/2018 18:00;Arlissa with caswell at XOYO (April 17, 2018);0.003929;19:00:00;Concert;http://www.songkick.com/concerts/32673209-arlissa-at-xoyo?utm_source=47927&utm_medium=partner;Tuesday;51.5255168;-0.0858669;38;48864;0.517;0.385;[0];-6.663;[0];0.0391;0.431;0;0.114;0.29;204776.3158;[4]
863;5afaef86f4259d0004b0e70b;17/4/2018 0:00;;Niall Kelly at Ain't Nothin But . . . (April 17, 2018);2.60E-05;;Concert;http://www.songkick.com/concerts/33077889-niall-kelly-at-aint-nothin-but?utm_source=47927&utm_medium=partner;Tuesday;51.5127436;-0.1395252;1;93;0.459;0.564;[4];-8.0965;[1];0.03025;0.3115;0.001725;0.193;0.393;230485.6;[4]
865;5afaef97f4259d0004b0e717;17/4/2018 0:00;17/4/2018 18:00;Naughty Boy, Professor Green, Luisa Omielan, Emeli Sandé, and 5 more… at O2 Academy Brixton (April 17, 2018);0.14665;19:00:00;Concert;http://www.songkick.com/concerts/33096424-naughty-boy-at-o2-academy-brixton?utm_source=47927&utm_medium=partner;Tuesday;51.4651204;-0.1148897;59;2353959;0.62;0.7005;[0];-6.74;[1];0.0696;0.158;0;0.1115;0.4275;234391;[4]
875;5afaefaef4259d0004b0e72e;17/4/2018 0:00;17/4/2018 19:00;Fil Bo Riva with Malena Zavala at Sebright Arms (April 17, 2018);0.001355;20:00:00;Concert;http://www.songkick.com/concerts/33323584-fil-bo-riva-at-sebright-arms?utm_source=47927&utm_medium=partner;Tuesday;51.5320226;-0.0631162;43.5;34808;0.5725;0.452;[5];-9.318;[1];0.03555;0.5835;0.007595;0.121;0.3;241531.4444;[4]
887;5afaefcbf4259d0004b0e74b;18/4/2018 0:00;18/4/2018 18:00;Nerina Pallot with Cattle & Cane at The Jazz Cafe (April 18, 2018);0.007627;19:00:00;Concert;http://www.songkick.com/concerts/31908529-nerina-pallot-at-jazz-cafe?utm_source=47927&utm_medium=partner;Wednesday;51.5387092;-0.1430815;38.5;21744;0.56;0.495;[7];-8.5315;[1];0.0331;0.3085;1.96E-05;0.1215;0.3745;248452.05;[4]
895;5afaefdff4259d0004b0e75d;18/4/2018 0:00;18/4/2018 18:00;David Kitt at The Borderline (April 18, 2018);0.002011;19:00:00;Concert;http://www.songkick.com/concerts/32476784-david-kitt-at-borderline?utm_source=47927&utm_medium=partner;Wednesday;51.5150865;-0.1305367;36;4467;0.6915;0.476;[2];-12.853;[0];0.0318;0.4945;0.5565;0.113;0.577;246937.7;[4]
905;5afaf006f4259d0004b0e77d;18/4/2018 0:00;18/4/2018 18:30;Tyondai Braxton with Kaitlyn Aurelia Smith, Qasim Naqvi, Edgard Varèse, and 2 more… at Queen Elizabeth Hall, Southbank Centre (April 18, 2018);0.002333;19:30:00;Concert;http://www.songkick.com/concerts/32727334-tyondai-braxton-at-queen-elizabeth-hall-southbank-centre?utm_source=47927&utm_medium=partner;Wednesday;51.5112139;-0.1198244;35.5;32555;0.277;0.2875;[0];-18.466;[1];0.04455;0.8735;0.8245;0.1105;0.0775;308754.18;[4]
906;5afaf008f4259d0004b0e77f;18/4/2018 0:00;;Holly Miranda at The Islington (April 18, 2018);0.006155;;Concert;http://www.songkick.com/concerts/32761719-holly-miranda-at-islington?utm_source=47927&utm_medium=partner;Wednesday;51.5344315;-0.1087937;36;7268;0.5675;0.5405;[0];-8.0345;[1];0.03535;0.2305;0.002095;0.12;0.3135;248887.6;[4]
907;5afaf00af4259d0004b0e781;18/4/2018 0:00;18/4/2018 18:30;Anton Bruhin at Cafe OTO (April 18, 2018);7.00E-06;19:30:00;Concert;http://www.songkick.com/concerts/32840684-anton-bruhin-at-cafe-oto?utm_source=47927&utm_medium=partner;Wednesday;51.5469092;-0.0747739;0;23;0.6935;0.4025;[8];-9.467;[1];0.045;0.8025;0.527;0.07455;0.8955;164404.5;[4]
908;5afaf00bf4259d0004b0e783;18/4/2018 0:00;18/4/2018 18:30;Kawala at Omeara (April 18, 2018);9.90E-05;19:30:00;Concert;http://www.songkick.com/concerts/32843494-kawala-at-omeara?utm_source=47927&utm_medium=partner;Wednesday;51.5041429;-0.094603;50;1499;0.653;0.654;[0];-7.654;[0];0.0334;0.241;0.0283;0.101;0.644;231613.6667;[4]
927;5afaf04ef4259d0004b0e7b6;18/4/2018 0:00;;Paul Moran with Nigel Price at 606 Club (April 18, 2018);2.00E-05;;Concert;http://www.songkick.com/concerts/33274819-paul-moran-at-606-club?utm_source=47927&utm_medium=partner;Wednesday;51.4784141;-0.1816679;16;31;0.4925;0.385;[0];-13.883;[1];0.04525;0.552;0.731;0.108;0.3235;275451.8;[4]
929;5afaf057f4259d0004b0e7bd;18/4/2018 0:00;18/4/2018 18:00;Wonk Unit with Great Cynics, The Dub Righters, and The Fleas at The Black Heart (April 18, 2018);0.000628;19:00:00;Concert;http://www.songkick.com/concerts/33388409-wonk-unit-at-black-heart?utm_source=47927&utm_medium=partner;Wednesday;51.5388431;-0.1416193;18;4554;0.4965;0.8475;[2];-5.246;[1];0.04995;0.014;0;0.1415;0.6085;166820.4;[4]
947;5afaf081f4259d0004b0e7e7;19/4/2018 0:00;19/4/2018 18:30;Tom Paxton at Cadogan Hall (April 19, 2018);0.002039;19:30:00;Concert;http://www.songkick.com/concerts/31742984-tom-paxton-at-cadogan-hall?utm_source=47927&utm_medium=partner;Thursday;51.4935705;-0.1573407;36;12485;0.5475;0.2235;[2];-13.5115;[1];0.0324;0.853;7.70E-05;0.135;0.521;199151.2;[4]
950;5afaf08af4259d0004b0e7ec;19/4/2018 0:00;19/4/2018 18:00;Nerina Pallot with Cattle & Cane at The Jazz Cafe (April 19, 2018);0.007625;19:00:00;Concert;http://www.songkick.com/concerts/31908534-nerina-pallot-at-jazz-cafe?utm_source=47927&utm_medium=partner;Thursday;51.5387092;-0.1430815;38.5;21744;0.56;0.495;[7];-8.5315;[1];0.0331;0.3085;1.96E-05;0.1215;0.3745;248452.05;[4]
954;5afaf092f4259d0004b0e7f5;19/4/2018 0:00;19/4/2018 18:00;L.A. Salami at Omeara (April 19, 2018);0.001443;19:00:00;Concert;http://www.songkick.com/concerts/32021949-la-salami-at-omeara?utm_source=47927&utm_medium=partner;Thursday;51.5041429;-0.094603;47;14521;0.5355;0.664;[11];-6.6165;[1];0.04595;0.272;5.69E-06;0.1195;0.515;253954.4;[4]
961;5afaf0a6f4259d0004b0e806;19/4/2018 0:00;;Barbarossa at The Islington (April 19, 2018);0.004257;;Concert;http://www.songkick.com/concerts/32525124-barbarossa-at-islington?utm_source=47927&utm_medium=partner;Thursday;51.5344315;-0.1087937;42;9753;0.596;0.4755;[0];-9.885;[1];0.0337;0.266;0.6725;0.0942;0.37;237904.4;[4]
964;5afaf0b1f4259d0004b0e80e;19/4/2018 0:00;19/4/2018 18:30;Dessa with Matthew Santos at Birthdays (April 19, 2018);0.006683;19:30:00;Concert;http://www.songkick.com/concerts/32601819-dessa-at-birthdays?utm_source=47927&utm_medium=partner;Thursday;51.5517702;-0.0751825;51.5;34662;0.593;0.581;[11];-8.4255;[0];0.0477;0.1895;3.88E-05;0.1065;0.298;217332.35;[4]
966;5afaf0bdf4259d0004b0e816;19/4/2018 0:00;;Oh Pep! with Warsaw Radio at The Lexington (April 19, 2018);0.001003;;Concert;http://www.songkick.com/concerts/32628014-oh-pep-at-lexington?utm_source=47927&utm_medium=partner;Thursday;51.5316567;-0.1114451;22.5;6271;0.548;0.6305;[0];-5.754;[1];0.03995;0.133;8.21E-06;0.1315;0.363;216035.05;[4]
973;5afaf0d4f4259d0004b0e827;19/4/2018 0:00;19/4/2018 18:00;Lucy May Walker with Charlotte Campbell and The TailorMade at The Water Rats (April 19, 2018);0.00017;19:00:00;Concert;http://www.songkick.com/concerts/32798549-lucy-may-walker-at-water-rats?utm_source=47927&utm_medium=partner;Thursday;51.528958;-0.119524;18;3734;0.628;0.557;[1];-8.255;[1];0.0393;0.191;0;0.108;0.52;204781.2174;[4]
977;5afaf0daf4259d0004b0e82e;19/4/2018 0:00;19/4/2018 19:30;Sam Brothers at The Troubadour (April 19, 2018);6.00E-06;20:30:00;Concert;http://www.songkick.com/concerts/32850604-sam-brothers-at-troubadour?utm_source=47927&utm_medium=partner;Thursday;51.4886945;-0.1919702;2;30;0.4345;0.261;[4];-11.155;[1];0.0331;0.897;6.37E-05;0.1145;0.2105;201597.4;[4]
988;5afaf0f2f4259d0004b0e847;19/4/2018 0:00;19/4/2018 18:30;Joey DeFrancesco and Van Morrison at Subterania (April 19, 2018);0.190429;19:30:00;Concert;http://www.songkick.com/concerts/33101819-joey-defrancesco-at-subterania?utm_source=47927&utm_medium=partner;Thursday;51.5214803;-0.2040499;61.5;708731;0.5405;0.478;[5];-10.3225;[1];0.0397;0.4605;3.71E-05;0.1535;0.521;280410.7;[4]
1013;5afaf13df4259d0004b0e88c;19/4/2018 0:00;19/4/2018 18:30;Kal Lavelle with Karima Francis and Becky CJ at Coal House Cafe (April 19, 2018);0.002027;19:30:00;Concert;http://www.songkick.com/concerts/33586589-kal-lavelle-at-coal-house-cafe?utm_source=47927&utm_medium=partner;Thursday;51.5701941;-0.0880639;15;3361;0.509;0.402;[9];-8.92;[1];0.0365;0.608;0;0.116;0.241;210980.1379;[4]
1014;5afaf13ef4259d0004b0e88e;19/4/2018 0:00;19/4/2018 18:00;Duncan Chisholm at Cecil Sharp House (April 19, 2018);0.000184;19:00:00;Concert;http://www.songkick.com/concerts/33592484-duncan-chisholm-at-cecil-sharp-house?utm_source=47927&utm_medium=partner;Thursday;51.5378716;-0.1494415;24;1433;0.328;0.448;[4];-11.522;[1];0.04145;0.675;0.263;0.10035;0.424;234886;[3]
1015;5afaf140f4259d0004b0e88f;19/4/2018 0:00;19/4/2018 18:30;Olivia Chaney at Hoxton Hall Youth Arts Centre (April 19, 2018);0.000393;19:30:00;Concert;http://www.songkick.com/concerts/33594449-olivia-chaney-at-hoxton-hall-youth-arts-centre?utm_source=47927&utm_medium=partner;Thursday;51.5317485;-0.0798094;27;2691;0.5165;0.08895;[10];-13.007;[1];0.03865;0.9255;2.34E-06;0.111;0.302;243741.5;[3]
1021;5afaf14ff4259d0004b0e89d;21/4/2018 0:00;21/4/2018 18:30;Steve Forbert at Nell's Jazz & Blues Club (April 21, 2018) (CANCELLED) ;0.00324;19:30:00;Concert;http://www.songkick.com/concerts/31695899-steve-forbert-at-nells-jazz-and-blues-club?utm_source=47927&utm_medium=partner;Saturday;51.4925872;-0.2071292;39;10309;0.607;0.5435;[9];-11.8565;[1];0.03925;0.3;0.000713;0.10575;0.726;250812;[4]
1029;5afaf16cf4259d0004b0e8b7;21/4/2018 0:00;21/4/2018 20:00;DePedro at Scala (April 21, 2018);0.001859;21:00:00;Concert;http://www.songkick.com/concerts/32159464-depedro-at-scala?utm_source=47927&utm_medium=partner;Saturday;51.5309284;-0.1202729;49;33322;0.539;0.5975;[7];-8.3625;[0];0.0323;0.577;0.00058;0.138;0.567;230146.1;[4]
1035;5afaf180f4259d0004b0e8ca;21/4/2018 0:00;21/4/2018 18:00;Flook at Irish Cultural Centre (April 21, 2018);0.000659;19:00:00;Concert;http://www.songkick.com/concerts/32332014-flook-at-irish-cultural-centre?utm_source=47927&utm_medium=partner;Saturday;51.492139;-0.2257642;33;6549;0.461;0.6395;[11];-11.379;[0];0.03845;0.591;0.8065;0.1145;0.8465;278198.6;[4]
1036;5afaf183f4259d0004b0e8cd;21/4/2018 0:00;21/4/2018 18:30;Kathryn Roberts & Sean Lakeman with Sunjay Brayne at Cecil Sharp House (April 21, 2018);0.000229;19:30:00;Concert;http://www.songkick.com/concerts/32358479-kathryn-roberts-and-sean-lakeman-at-cecil-sharp-house?utm_source=47927&utm_medium=partner;Saturday;51.5378716;-0.1494415;6;597;0.604;0.2215;[7];-12.0655;[1];0.0394;0.87;4.14E-06;0.1085;0.595;213794.7;[4]
1042;5afaf197f4259d0004b0e8dd;21/4/2018 0:00;21/4/2018 18:00;Gisela João at Union Chapel (April 21, 2018);0.000409;19:00:00;Concert;http://www.songkick.com/concerts/32510694-gisela-joao-at-union-chapel?utm_source=47927&utm_medium=partner;Saturday;51.5443277;-0.1028893;;;;;;;;;;;;;;
1067;5afaf210f4259d0004b0e937;21/4/2018 0:00;21/4/2018 18:30;Pictish Trail with Super Best Friends Club, Clémentine March, and Gift Horse at The Amersham Arms (April 21, 2018);0.001438;19:30:00;Concert;http://www.songkick.com/concerts/33134199-pictish-trail-at-amersham-arms?utm_source=47927&utm_medium=partner;Saturday;51.4756128;-0.0303795;5;2523;0.514;0.611;[2];-9.473;[1];0.042;0.0709;0.0334;0.123;0.381;248492.3226;[4]
1075;5afaf221f4259d0004b0e945;21/4/2018 0:00;21/4/2018 18:30;Van Morrison with Joey DeFrancesco at Subterania (April 21, 2018);0.190561;19:30:00;Concert;http://www.songkick.com/concerts/33235899-van-morrison-at-subterania?utm_source=47927&utm_medium=partner;Saturday;51.5214803;-0.2040499;61.5;708731;0.5405;0.478;[5];-10.3225;[1];0.0397;0.4605;3.71E-05;0.1535;0.521;280410.7;[4]
1082;5afaf23cf4259d0004b0e956;21/4/2018 0:00;;The Queen's Birthday Party 2018;0.18987;;Festival;http://www.songkick.com/festivals/2299814-queens-birthday-party/id/33330699-the-queens-birthday-party-2018?utm_source=47927&utm_medium=partner;Saturday;51.500786;-0.1781517;72;12212229;0.6255;0.624;[0];-6.7515;[1];0.05925;0.2175;0;0.118;0.532;211650.95;[4]
1084;5afaf241f4259d0004b0e95b;21/4/2018 0:00;21/4/2018 18:00;The John Langan Band and The Turbans at Islington Assembly Hall (April 21, 2018);0.00074;19:00:00;Concert;http://www.songkick.com/concerts/33375149-john-langan-band-at-islington-assembly-hall?utm_source=47927&utm_medium=partner;Saturday;51.5395158;-0.1024666;14;3168;0.53;0.383;[7];-8.252;[1];0.0431;0.802;0;0.153;0.773;174335.1818;[4]
1094;5afaf259f4259d0004b0e96f;21/4/2018 0:00;;HALEY (MN) at Banquet Records (April 21, 2018);0;;Concert;http://www.songkick.com/concerts/33453764-haley-mn-at-banquet-records?utm_source=47927&utm_medium=partner;Saturday;51.4091452;-0.3032247;;;;;;;;;;;;;;
1108;5afaf286f4259d0004b0e98e;21/4/2018 0:00;21/4/2018 18:00;Bishi at The Old Church (April 21, 2018);0.000232;19:00:00;Concert;http://www.songkick.com/concerts/33582809-bishi-at-old-church?utm_source=47927&utm_medium=partner;Saturday;51.5611087;-0.0837867;6;338;0.523;0.3125;[7];-9.3175;[0];0.0412;0.6425;3.47E-05;0.1535;0.3715;284397.4;[4]
1112;5afaf290f4259d0004b0e998;22/4/2018 0:00;22/4/2018 18:30;Omar Souleyman at Oval Space (April 22, 2018);0.003488;19:30:00;Concert;http://www.songkick.com/concerts/31300354-omar-souleyman-at-oval-space?utm_source=47927&utm_medium=partner;Sunday;51.5331547;-0.0592616;37;30875;0.603;0.932;[11];-5.3065;[1];0.04275;0.02315;0.008155;0.125;0.767;391457.8;[4]
1123;5afaf2acf4259d0004b0e9b0;22/4/2018 0:00;;Greg Russell at Ye Olde Rose & Crown Theatre Pub (April 22, 2018);6.70E-05;;Concert;http://www.songkick.com/concerts/32524279-greg-russell-at-ye-olde-rose-and-crown-theatre-pub?utm_source=47927&utm_medium=partner;Sunday;51.5869819;-0.02036;19;413;0.5365;0.376;[7];-10.6935;[1];0.0415;0.722;2.72E-05;0.116;0.4695;269694.7;[4]
1132;5afaf2c8f4259d0004b0e9c8;22/4/2018 0:00;;Tim Penn with Second Line at Ronnie Scott's (April 22, 2018);1.90E-05;;Concert;http://www.songkick.com/concerts/33006374-tim-penn-at-ronnie-scotts?utm_source=47927&utm_medium=partner;Sunday;51.5134988;-0.131519;0;7;0.7965;0.6325;[1];-12.189;[0];0.10875;0.006185;0.889;0.10135;0.377;409510;[4]
1144;5afaf2ebf4259d0004b0e9df;22/4/2018 0:00;22/4/2018 19:00;Hüsnü Arkan at O2 Academy Islington (April 22, 2018);0.000289;20:00:00;Concert;http://www.songkick.com/concerts/33356159-husnu-arkan-at-o2-academy-islington?utm_source=47927&utm_medium=partner;Sunday;51.5345836;-0.1059202;44;35916;0.5275;0.395;[7];-10.954;[0];0.04235;0.6965;0.000159;0.1215;0.231;257495.8;[4]
1148;5afaf2f4f4259d0004b0e9e6;22/4/2018 0:00;;Dark Red Seed with Of The Wand & The Moon at The Underworld (April 22, 2018);0.000859;;Concert;http://www.songkick.com/concerts/33541219-dark-red-seed-at-underworld?utm_source=47927&utm_medium=partner;Sunday;51.538488;-0.142103;17;7680;0.344;0.557;[7];-8.359;[1];0.0344;0.0746;0.749;0.13;0.173;340657.0667;[4]
1156;5afaf30ef4259d0004b0e9fc;6/5/2018 0:00;6/5/2018 18:30;Eric Bibb at Savoy Theatre (May 6, 2018);0.005299;19:30:00;Concert;http://www.songkick.com/concerts/31988284-eric-bibb-at-savoy-theatre?utm_source=47927&utm_medium=partner;Sunday;51.5116028;-0.1183185;44;22979;0.6145;0.293;[1];-12.834;[0];0.04505;0.845;0.0012645;0.109;0.5645;218532.6;[4]
1162;5afaf31df4259d0004b0ea0b;6/5/2018 0:00;6/5/2018 18:30;Bing Selfish and The Windsors with Bob Drake and Depresstival at The Others (May 6, 2018);5.90E-05;19:30:00;Concert;http://www.songkick.com/concerts/32541569-bing-selfish-at-others?utm_source=47927&utm_medium=partner;Sunday;51.5659412;-0.0748327;0;159;0.4475;0.4915;[0];-8.7505;[1];0.05205;0.663;0;0.1475;0.5285;208690.3333;[4]
1175;5afaf353f4259d0004b0ea37;6/5/2018 0:00;6/5/2018 18:00;Luke Sital-Singh at Queen Elizabeth Hall, Southbank Centre (May 6, 2018);0.011661;19:00:00;Concert;http://www.songkick.com/concerts/33039399-luke-sitalsingh-at-queen-elizabeth-hall-southbank-centre?utm_source=47927&utm_medium=partner;Sunday;51.5112139;-0.1198244;55;53311;0.5045;0.2445;[0];-10.434;[1];0.0335;0.816;3.84E-05;0.1085;0.294;242367;[4]
1179;5afaf35af4259d0004b0ea3e;6/5/2018 0:00;6/5/2018 10:00;Hannah Scott at Caffe Nero - Heathrow (May 6, 2018);9.10E-05;11:00:00;Concert;http://www.songkick.com/concerts/33172134-hannah-scott-at-caffe-nero-heathrow?utm_source=47927&utm_medium=partner;Sunday;51.4700223;-0.4542955;18;362;0.589;0.386;[0];-7.9005;[1];0.0306;0.668;0.0001303;0.112;0.262;198224.6;[4]
1202;5afaf3bbf4259d0004b0ea80;6/5/2018 0:00;;Treetop Flyers at Servant Jazz Quarters (May 6, 2018);0.002381;;Concert;http://www.songkick.com/concerts/33455389-treetop-flyers-at-servant-jazz-quarters?utm_source=48622&utm_medium=partner;Sunday;51.5486354;-0.0767334;24;5290;0.463;0.459;[2];-10.3805;[1];0.0343;0.2955;0.000498;0.15;0.425;300901.6;[4]
1226;5afaf3fbf4259d0004b0eab9;6/5/2018 0:00;6/5/2018 17:00;Elliott Morris and Jack Carrack at Elephant And Castle (May 6, 2018);0.000208;18:00:00;Concert;http://www.songkick.com/concerts/33791259-elliott-morris-at-elephant-and-castle?utm_source=48622&utm_medium=partner;Sunday;51.4974742;-0.0989057;2;261;0.572;0.501;[1];-10.391;[1];0.0349;0.526;0.0003515;0.114;0.334;220157.2;[4]
1238;5afaf433f4259d0004b0eae5;7/5/2018 0:00;;Spiritual Records Spring Festival 2018;6.30E-05;;Festival;http://www.songkick.com/festivals/1823349-spiritual-records-spring/id/33039699-spiritual-records-spring-festival-2018?utm_source=47927&utm_medium=partner;Monday;51.5429763;-0.1483958;2;2857;0.553;0.372;[7];-9.257;[1];0.0364;0.482;0.000114;0.123;0.349;228884.5082;[4]
1262;5afaf47bf4259d0004b0eb1e;8/5/2018 0:00;8/5/2018 18:00;Asaf Avidan at Union Chapel (May 8, 2018);0.019772;19:00:00;Concert;http://www.songkick.com/concerts/31861519-asaf-avidan-at-union-chapel?utm_source=47927&utm_medium=partner;Tuesday;51.5443277;-0.1028893;51;158379;0.6415;0.513;[7];-10.363;[0];0.05585;0.6;0.001357;0.1001;0.309;239948.4;[4]
1266;5afaf487f4259d0004b0eb27;8/5/2018 0:00;8/5/2018 18:30;Nap Eyes with Haley Heynderickx at Oslo Hackney (May 8, 2018);0.001443;19:30:00;Concert;http://www.songkick.com/concerts/32425639-nap-eyes-at-oslo-hackney?utm_source=47927&utm_medium=partner;Tuesday;51.5479818;-0.0575201;42;15630;0.5375;0.42;[7];-9.1075;[1];0.0343;0.282;0.000112;0.117;0.4605;242910.25;[4]
1274;5afaf4a7f4259d0004b0eb3c;8/5/2018 0:00;8/5/2018 18:30;Stella Donnelly with Annabel Allum at The Lexington (May 8, 2018);0.000682;19:30:00;Concert;http://www.songkick.com/concerts/32730749-stella-donnelly-at-lexington?utm_source=47927&utm_medium=partner;Tuesday;51.5316567;-0.1114451;30.5;12067;0.3655;0.367;[7];-6.8315;[1];0.0319;0.786;0.0001515;0.112;0.13;214660.8125;[4]
1275;5afaf4abf4259d0004b0eb3f;8/5/2018 0:00;8/5/2018 18:00;Scott Helman with PLESTED at Thousand Island (formerly Upstairs at The Garage) (May 8, 2018);0.003038;19:00:00;Concert;http://www.songkick.com/concerts/32867194-scott-helman-at-thousand-island?utm_source=47927&utm_medium=partner;Tuesday;51.5466983;-0.1038429;47;25461;0.626;0.595;[1];-7.711;[1];0.0459;0.354;0;0.108;0.442;203899.2667;[4]
1298;5afaf4e5f4259d0004b0eb75;8/5/2018 0:00;;Florence and the Machine at Royal Festival Hall, Southbank Centre (May 8, 2018);0.272259;;Concert;http://www.songkick.com/concerts/33724824-florence-and-the-machine-at-royal-festival-hall-southbank-centre?utm_source=47927&utm_medium=partner;Tuesday;51.5033996;-0.117448;78;3573912;0.551;0.724;[9];-5.011;[1];0.0348;0.1604;6.76E-06;0.1385;0.3115;247104.5;[4]
1308;5afaf4f8f4259d0004b0eb84;9/5/2018 0:00;9/5/2018 18:00;Don McLean at London Palladium (May 9, 2018);0.064849;19:00:00;Concert;http://www.songkick.com/concerts/31514209-don-mclean-at-london-palladium?utm_source=48622&utm_medium=partner;Wednesday;51.514568;-0.140655;63;187453;0.4425;0.183;[4];-16.0695;[1];0.0349;0.803;6.20E-05;0.116;0.4135;237455.5;[4]
1316;5afaf511f4259d0004b0eb97;9/5/2018 0:00;;Rheingans Sisters at Old Parish Church, Stoke Newington (May 9, 2018);6.70E-05;;Concert;http://www.songkick.com/concerts/32576714-rheingans-sisters-at-old-parish-church-stoke-newington?utm_source=48622&utm_medium=partner;Wednesday;51.5611772;-0.0840919;14;493;0.457;0.17;[2];-12.449;[1];0.03655;0.9325;0.044715;0.0816;0.3825;255384;[4]
1319;5afaf51ef4259d0004b0eba0;9/5/2018 0:00;9/5/2018 18:30;Anna Burch and Dan Stock at The Old Blue Last (May 9, 2018);0.000459;19:30:00;Concert;http://www.songkick.com/concerts/32658739-anna-burch-at-old-blue-last?utm_source=48622&utm_medium=partner;Wednesday;51.5243593;-0.0801042;22.5;6011;0.493;0.606;[9];-6.5575;[1];0.02995;0.03445;7.42E-06;0.105;0.4435;213791.6667;[4]
1320;5afaf520f4259d0004b0eba2;9/5/2018 0:00;;Soledad at Islington Assembly Hall (May 9, 2018);0.001221;;Concert;http://www.songkick.com/concerts/32682049-soledad-at-islington-assembly-hall?utm_source=48622&utm_medium=partner;Wednesday;51.5395158;-0.1024666;52;81965;0.6355;0.727;[2];-5.6305;[0];0.05165;0.3305;0;0.1128;0.6665;257736;[4]
1323;5afaf52df4259d0004b0ebaa;9/5/2018 0:00;9/5/2018 18:00;Riley Pearce with Olly Friend at Thousand Island (formerly Upstairs at The Garage) (May 9, 2018);0.001125;19:00:00;Concert;http://www.songkick.com/concerts/32749484-riley-pearce-at-thousand-island?utm_source=48622&utm_medium=partner;Wednesday;51.5466983;-0.1038429;25;9081;0.626;0.459;[6];-9.76;[1];0.0317;0.504;0.000171;0.112;0.328;222213.5455;[4]
1329;5afaf542f4259d0004b0ebbc;9/5/2018 0:00;9/5/2018 18:30;Simone Felice with Keto at Omeara (May 9, 2018);0.001594;19:30:00;Concert;http://www.songkick.com/concerts/32868199-simone-felice-at-omeara?utm_source=48622&utm_medium=partner;Wednesday;51.5041429;-0.094603;18;2589;0.4025;0.357;[6];-7.9805;[0];0.03135;0.5095;7.86E-06;0.1205;0.257;225996.8889;[4]
1336;5afaf558f4259d0004b0ebce;9/5/2018 0:00;9/5/2018 18:00;Son of Dave at The Blues Kitchen - Brixton (May 9, 2018);0.002157;19:00:00;Concert;http://www.songkick.com/concerts/33218054-son-of-dave-at-blues-kitchen-brixton?utm_source=48622&utm_medium=partner;Wednesday;51.4606163;-0.1192565;35;7230;0.7605;0.47;[10];-9.717;[1];0.12;0.371;0.165;0.19;0.726;191835.5;[4]
1344;5afaf56af4259d0004b0ebe0;9/5/2018 0:00;9/5/2018 18:30;Iva Bittova and Abraham Brody at Richmix Cinema and Arts Centre (May 9, 2018);0.000267;19:30:00;Concert;http://www.songkick.com/concerts/33456259-iva-bittova-at-richmix-cinema-and-arts-centre?utm_source=48622&utm_medium=partner;Wednesday;51.5242129;-0.0735496;10;2291;0.3055;0.2315;[7];-11.103;[1];0.041;0.9075;0.011;0.1035;0.1395;271184.45;[4]
1347;5afaf56ef4259d0004b0ebe4;9/5/2018 0:00;;Buriers at Five Bells (May 9, 2018);8.90E-05;;Concert;http://www.songkick.com/concerts/33523459-buriers-at-five-bells?utm_source=48622&utm_medium=partner;Wednesday;51.4760286;-0.047408;9;580;0.422;0.201;[7];-17.044;[0];0.03455;0.743;0.0243;0.109;0.095;261341;[4]
1349;5afaf577f4259d0004b0ebec;9/5/2018 0:00;;Molly Tuttle with Rachel Baiman at The Water Rats (May 9, 2018);0.000164;;Concert;http://www.songkick.com/concerts/33526464-molly-tuttle-at-water-rats?utm_source=48622&utm_medium=partner;Wednesday;51.528958;-0.119524;34.5;4628;0.5955;0.3175;[0];-11.172;[1];0.03235;0.814;0.00192;0.1215;0.427;224806.75;[4]
1351;5afaf580f4259d0004b0ebf2;9/5/2018 0:00;9/5/2018 18:00;Blood-Dope Honey, PINUP (United Kingdom), Who Killed Nancy Johnson?, Bloodhounds, and 1 more… at Nambucca (May 9, 2018);5.40E-05;19:00:00;Concert;http://www.songkick.com/concerts/33643639-blooddope-honey-at-nambucca?utm_source=48622&utm_medium=partner;Wednesday;51.5609729;-0.1236348;0;58;0.4215;0.966;[2];-4.3705;[0];0.07115;0.001156;0.004595;0.24;0.4075;232537.2857;[4]
1352;5afaf582f4259d0004b0ebf4;9/5/2018 0:00;9/5/2018 18:30;Lord Huron at The Lexington (May 9, 2018);0.062174;19:30:00;Concert;http://www.songkick.com/concerts/33644549-lord-huron-at-lexington?utm_source=48622&utm_medium=partner;Wednesday;51.5316567;-0.1114451;73;337849;0.4805;0.6005;[4];-6.57;[1];0.03285;0.329;0.1995;0.123;0.423;248379;[4]
1354;5afaf589f4259d0004b0ebfb;9/5/2018 0:00;9/5/2018 18:00;Listenpony, George Fu, La Vaghezza, and Elena Tonra at Playground Theatre (May 9, 2018);0.001026;19:00:00;Concert;http://www.songkick.com/concerts/33697779-listenpony-at-playground-theatre?utm_source=48622&utm_medium=partner;Wednesday;51.5178021;-0.2243925;;;;;;;;;;;;;;
1369;5afaf5aaf4259d0004b0ec18;10/5/2018 0:00;10/5/2018 18:00;Eddi Reader with Siobhan Miller at Union Chapel (May 10, 2018);0.004107;19:00:00;Concert;http://www.songkick.com/concerts/31976659-eddi-reader-at-union-chapel?utm_source=48067&utm_medium=partner;Thursday;51.5443277;-0.1028893;29.5;7458;0.435;0.329;[9];-11.6825;[1];0.0321;0.5125;3.38E-05;0.119;0.4205;249199.4;[4]
1370;5afaf5aff4259d0004b0ec1c;10/5/2018 0:00;10/5/2018 18:30;Protomartyr with Ana Da Silva and Rattle at Scala (May 10, 2018);0.005703;19:30:00;Concert;http://www.songkick.com/concerts/32035559-protomartyr-at-scala?utm_source=48067&utm_medium=partner;Thursday;51.5309284;-0.1202729;46;58895;0.367;0.5665;[4];-8.8835;[0];0.04365;0.6775;0.6955;0.1235;0.344;244001.3667;[4]
1371;5afaf5b1f4259d0004b0ec1e;10/5/2018 0:00;10/5/2018 17:30;Gwyneth Herbert at The Crazy Coqs (May 10, 2018);0.000967;18:30:00;Concert;http://www.songkick.com/concerts/32144609-gwyneth-herbert-at-crazy-coqs?utm_source=48067&utm_medium=partner;Thursday;51.5108185;-0.1357307;19;1371;0.635;0.265;[2];-11.2195;[1];0.0456;0.8065;4.26E-05;0.104;0.349;200768;[4]
1372;5afaf5b5f4259d0004b0ec20;10/5/2018 0:00;10/5/2018 6:00;Mary Gauthier with Ben Glover at Kings Place (May 10, 2018);0.003783;7:00:00;Concert;http://www.songkick.com/concerts/32144714-mary-gauthier-at-kings-place?utm_source=48067&utm_medium=partner;Thursday;51.534649;-0.122138;32.5;13145;0.5855;0.372;[9];-9.258;[1];0.02915;0.516;0.001765;0.1095;0.326;266336.25;[4]
1373;5afaf5bbf4259d0004b0ec25;10/5/2018 0:00;10/5/2018 18:30;Rodney Cromwell, The Frixion (UK), Nature of Wires, and Vieon at The Islington (May 10, 2018);2.30E-05;19:30:00;Concert;http://www.songkick.com/concerts/32161299-rodney-cromwell-at-islington?utm_source=48067&utm_medium=partner;Thursday;51.5344315;-0.1087937;3;327;0.4965;0.7975;[0];-7.755;[0];0.03645;0.00437;0.654;0.191;0.3415;305088.3667;[4]
1375;5afaf5c0f4259d0004b0ec28;10/5/2018 0:00;;Rachel Baiman and Molly Tuttle at Green Note (May 10, 2018);0.000105;;Concert;http://www.songkick.com/concerts/32248534-rachel-baiman-at-green-note?utm_source=48067&utm_medium=partner;Thursday;51.5374217;-0.1456995;34.5;4628;0.5955;0.3175;[0];-11.172;[1];0.03235;0.814;0.00192;0.1215;0.427;224806.75;[4]
1377;5afaf5c5f4259d0004b0ec2d;10/5/2018 0:00;;Snowpoet at Kings Place (May 10, 2018);7.10E-05;;Concert;http://www.songkick.com/concerts/32362309-snowpoet-at-kings-place?utm_source=48067&utm_medium=partner;Thursday;51.534649;-0.122138;25;929;0.378;0.192;[9];-16.533;[1];0.0382;0.913;0.00289;0.116;0.2605;206914.7;[4]
1391;5afaf5f2f4259d0004b0ec50;10/5/2018 0:00;10/5/2018 19:00;Brooke Bentham with Imogen at Bermondsey Social Club (May 10, 2018);0.000425;20:00:00;Concert;http://www.songkick.com/concerts/33054479-brooke-bentham-at-bermondsey-social-club?utm_source=48067&utm_medium=partner;Thursday;51.491722;-0.0595668;44.5;242429;0.462;0.4405;[9];-9.7315;[1];0.0297;0.6375;5.61E-05;0.1245;0.36;248891.2;[4]
1398;5afaf607f4259d0004b0ec60;10/5/2018 0:00;10/5/2018 18:00;Asylums with Harry Pane, Louise Distras, Deux Furieuses, and 1 more… at The Underworld (May 10, 2018);0.000724;19:00:00;Concert;http://www.songkick.com/concerts/33268509-asylums-at-underworld?utm_source=48067&utm_medium=partner;Thursday;51.538488;-0.142103;17;7190;0.5025;0.8365;[5];-4.7285;[1];0.0427;0.0010135;0.001745;0.1385;0.417;187653.16;[4]
1411;5afcd45d4054df00043ae4a9;23/5/2018 0:00;23/5/2018 18:00;Ezra Furman with Du Blonde at O2 Academy Brixton (May 23, 2018);0.009171;19:00:00;Concert;http://www.songkick.com/concerts/31908624-ezra-furman-at-o2-academy-brixton?utm_source=47747&utm_medium=partner;Wednesday;51.4651204;-0.1148897;32;35419;0.533;0.663;[0];-9.7425;[1];0.04465;0.1565;3.63E-05;0.143;0.3965;197417.35;[4]
1413;5afcd4614054df00043ae4ac;23/5/2018 0:00;23/5/2018 18:00;Roo Panes at O2 Shepherd's Bush Empire (May 23, 2018) (CANCELLED) ;0.013258;19:00:00;Concert;http://www.songkick.com/concerts/32359194-roo-panes-at-o2-shepherds-bush-empire?utm_source=47747&utm_medium=partner;Wednesday;51.503507;-0.2238407;61;90904;0.46;0.33;[0];-11.5615;[1];0.03515;0.76;0.001195;0.113;0.196;266177.5;[4]
1416;5afcd4674054df00043ae4b1;23/5/2018 0:00;;Xylouris White at Cafe OTO (May 23, 2018);0.000808;;Concert;http://www.songkick.com/concerts/32557964-xylouris-white-at-cafe-oto?utm_source=47747&utm_medium=partner;Wednesday;51.5469092;-0.0747739;23;3175;0.4345;0.3735;[9];-12.7035;[0];0.0351;0.47;0.14;0.103;0.333;261868.8;[4]
1426;5afcd4844054df00043ae4c4;23/5/2018 0:00;23/5/2018 18:00;Phoebe Bridgers at Islington Assembly Hall (May 23, 2018);0.004057;19:00:00;Concert;http://www.songkick.com/concerts/32901844-phoebe-bridgers-at-islington-assembly-hall?utm_source=47747&utm_medium=partner;Wednesday;51.5395158;-0.1024666;58;39552;0.4805;0.25;[10];-12.2595;[1];0.03495;0.9405;0.00252;0.101;0.273;262606.6;[4]
1427;5afcd4894054df00043ae4c8;23/5/2018 0:00;23/5/2018 19:00;Aidan Moffat and RM Hubbert with Siobhan Wilson at Moth Club (May 23, 2018);0.001066;20:00:00;Concert;http://www.songkick.com/concerts/32916784-aidan-moffat-at-moth-club?utm_source=47747&utm_medium=partner;Wednesday;51.545251;-0.0546504;28;5816;0.6165;0.462;[2];-10.035;[1];0.03575;0.453;0.12355;0.0968;0.422;218113.6667;[4]
1436;5afcd4a34054df00043ae4dc;23/5/2018 0:00;;Findlay Brown with WELFARE (UK) at Green Note (May 23, 2018);0.003586;;Concert;http://www.songkick.com/concerts/33241109-findlay-brown-at-green-note?utm_source=47747&utm_medium=partner;Wednesday;51.5374217;-0.1456995;39;2012;0.4765;0.2385;[2];-14.182;[1];0.03145;0.7835;0.0731;0.1165;0.15;208000;[4]
1441;5afcd4b54054df00043ae4e9;23/5/2018 0:00;;The Blood Choir with Hungry Ghosts and Electric Litany at Paper Dress Vintage (May 23, 2018);0.000776;;Concert;http://www.songkick.com/concerts/33330234-blood-choir-at-paper-dress-vintage?utm_source=47747&utm_medium=partner;Wednesday;51.5473051;-0.0546359;9;6159;0.292;0.399;[0];-11.653;[0];0.0354;0.234;0.678;0.115;0.153;298197.1379;[4]
1442;5afcd4b74054df00043ae4eb;23/5/2018 0:00;23/5/2018 18:00;Allman Brown at Bush Hall (May 23, 2018);0.004342;19:00:00;Concert;http://www.songkick.com/concerts/33340829-allman-brown-at-bush-hall?utm_source=47747&utm_medium=partner;Wednesday;51.5062847;-0.2314873;58;19669;0.4955;0.331;[0];-10.902;[0];0.03555;0.674;0.000762;0.1085;0.1955;234864.2;[4]
1460;5afcd4ea4054df00043ae50f;23/5/2018 0:00;;Frank Harrison and Brigitte Beraha at Kings Place (May 23, 2018);8.00E-06;;Concert;http://www.songkick.com/concerts/33659509-frank-harrison-at-kings-place?utm_source=47747&utm_medium=partner;Wednesday;51.534649;-0.122138;2.5;84;0.492;0.157;[3];-13.97;[1];0.0382;0.953;2.55E-06;0.102;0.248;325118.1053;[4]
1463;5afcd4f14054df00043ae514;23/5/2018 0:00;;Niall Kelly at The Blues Kitchen - Brixton (May 23, 2018);2.50E-05;;Concert;http://www.songkick.com/concerts/33725179-niall-kelly-at-blues-kitchen-brixton?utm_source=47747&utm_medium=partner;Wednesday;51.4606163;-0.1192565;1;94;0.474;0.525;[4];-8.6295;[1];0.02865;0.2555;0.00246;0.1625;0.3;233343.2;[4]
1488;5afcd53e4054df00043ae551;24/5/2018 0:00;24/5/2018 18:30;Delaney Davidson with Michael J Sheehy at Servant Jazz Quarters (May 24, 2018);0.000476;19:30:00;Concert;http://www.songkick.com/concerts/32677274-delaney-davidson-at-servant-jazz-quarters?utm_source=47927&utm_medium=partner;Thursday;51.5486354;-0.0767334;19.5;3213;0.499;0.3715;[4];-8.3555;[1];0.0402;0.7225;0.00873;0.1125;0.371;263535.3;[4]
1490;5afcd5424054df00043ae554;24/5/2018 0:00;24/5/2018 18:00;Tommy Emmanuel at Union Chapel (May 24, 2018);0.006959;19:00:00;Concert;http://www.songkick.com/concerts/32730714-tommy-emmanuel-at-union-chapel?utm_source=47927&utm_medium=partner;Thursday;51.5443277;-0.1028893;48;70714;0.604;0.3475;[6];-11.3215;[0];0.0384;0.7165;0.666;0.1135;0.5785;256790.4;[4]
1500;5afcd5604054df00043ae56a;24/5/2018 0:00;24/5/2018 18:30;Mutual Benefit at The Lexington (May 24, 2018);0.007724;19:30:00;Concert;http://www.songkick.com/concerts/33011224-mutual-benefit-at-lexington?utm_source=47927&utm_medium=partner;Thursday;51.5316567;-0.1114451;39;17823;0.356;0.3485;[0];-12.406;[1];0.03095;0.8515;0.2775;0.1585;0.1465;248448.5;[4]
1502;5afcd5684054df00043ae56f;24/5/2018 0:00;24/5/2018 18:30;Louis Baker with Harrison Storm at The Islington (May 24, 2018);0.002089;19:30:00;Concert;http://www.songkick.com/concerts/33054589-louis-baker-at-islington?utm_source=47927&utm_medium=partner;Thursday;51.5344315;-0.1087937;50.5;28196;0.459;0.267;[7];-11.6805;[1];0.03675;0.709;2.21E-05;0.11;0.1955;235301.3;[4]
1506;5afcd5784054df00043ae57c;24/5/2018 0:00;24/5/2018 18:00;Svalbard, Møl (DK), and Group Of Man at The Black Heart (May 24, 2018);0.000153;19:00:00;Concert;http://www.songkick.com/concerts/33148484-svalbard-at-black-heart?utm_source=47927&utm_medium=partner;Thursday;51.5388431;-0.1416193;12.5;1791;0.188;0.9755;[6];-5.04;[1];0.1002;4.08E-05;0.5085;0.178;0.2205;237178.6;[4]
1517;5afcd5944054df00043ae594;24/5/2018 0:00;24/5/2018 18:30;Balkan Beat Box, Gili Yalo, Shai Tsabari, and A-Wa (IL) at Royal Albert Hall (May 24, 2018);0.011785;19:30:00;Concert;http://www.songkick.com/concerts/33461194-balkan-beat-box-at-royal-albert-hall?utm_source=47927&utm_medium=partner;Thursday;51.500786;-0.1781517;28;89357;0.6185;0.709;[7];-6.731;[1];0.0421;0.0513;0.000208;0.1265;0.748;248104;[4]
1525;5afcd5ac4054df00043ae5a4;24/5/2018 0:00;24/5/2018 18:00;Orla Gartland with Nick Wilson and Greta Isaac at Thousand Island (formerly Upstairs at The Garage) (May 24, 2018);0.004262;19:00:00;Concert;http://www.songkick.com/concerts/33592794-orla-gartland-at-thousand-island?utm_source=47927&utm_medium=partner;Thursday;51.5466983;-0.1038429;38;29271;0.585;0.395;[2];-8.759;[1];0.0328;0.552;1.99E-06;0.1;0.328;231649.7778;[4]
1547;5afcd6054054df00043ae5e6;24/5/2018 0:00;24/5/2018 18:30;Helena Deland with Yeule at The Waiting Room (May 24, 2018);0.000218;19:30:00;Concert;http://www.songkick.com/concerts/33863494-helena-deland-at-waiting-room?utm_source=48622&utm_medium=partner;Thursday;51.562052;-0.073771;29.5;4782;0.5135;0.5375;[0];-9.7015;[1];0.03595;0.5625;0.036055;0.11;0.207;221583.1111;[4]
1553;5afcd6174054df00043ae5f1;24/5/2018 0:00;;Gwyneth Herbert, Anoushka Lucas, and Hattie Whitehead at 606 Club (May 24, 2018);0.000956;;Concert;http://www.songkick.com/concerts/33936874-gwyneth-herbert-at-606-club?utm_source=48622&utm_medium=partner;Thursday;51.4784141;-0.1816679;17;2243;0.5375;0.3745;[2];-9.6285;[1];0.03495;0.824;3.49E-05;0.1095;0.339;217988.7;[4]
1555;5afcd61c4054df00043ae5f4;24/5/2018 0:00;24/5/2018 20:00;Coals at Miranda Club, Ace Hotel London Shoreditch (May 24, 2018);0.000298;21:00:00;Concert;http://www.songkick.com/concerts/33959574-coals-at-miranda-club-ace-hotel-london-shoreditch?utm_source=48622&utm_medium=partner;Thursday;51.5254162;-0.0772849;38;7574;0.3865;0.389;[2];-12.9285;[0];0.0415;0.475;0.2235;0.2805;0.221;225183.7;[4]
1572;5aff777584d273000431fdd1;25/5/2018 0:00;;Jim Moray with The Norfolk broads at The Ivy House (May 25, 2018);0.000766;;Concert;http://www.songkick.com/concerts/31640769-jim-moray-at-ivy-house?utm_source=48622&utm_medium=partner;Friday;51.4582894;-0.0521156;10;1686;0.5915;0.239;[6];-10.9715;[1];0.05005;0.819;0;0.129;0.362;268583.3;[4]
