id;_id;date;name;popularity;date_name;lat;lng;popularity_median;followers_sum;danceability_median;energy_median;key_mode;loudness_median;mode_mode;speechiness_median;acousticness_median;instrumentalness_median;liveness_median;valence_median;duration_ms_mean;time_signature_mode
156;5afab9d3dcab560004a0af7d;16/5/2018 0:00;Visible Cloaks with Proc Fiskal and Flora Yin-wong at Corsica Studios (May 16, 2018);0.000846;Wednesday;51.4935647;-0.0987167;23;7307;0.448;0.4295;[3];-13.2595;[0];0.0766;0.6005;0.4075;0.157;0.3435;234960.5;[4]
236;5afabab2dcab560004a0b03e;17/5/2018 0:00;Jess Glynne at The Jazz Cafe (May 17, 2018);0.097831;Thursday;51.5387092;-0.1430815;83;799627;0.6325;0.812;[0];-4.365;[1];0.04415;0.07225;0;0.161;0.4565;209667.1;[4]
243;5afabac3dcab560004a0b04d;18/5/2018 0:00;Rita Ora at O2 Academy Brixton (May 18, 2018);0.114271;Friday;51.4651204;-0.1148897;83;2048969;0.669;0.748;[11];-4.3515;[0];0.04255;0.03755;0;0.116;0.4195;209512.9;[4]
283;5afabb44dcab560004a0b0b3;18/5/2018 0:00;Showtek at Ministry of Sound (May 18, 2018);0.053451;Friday;51.497496;-0.099585;67;362930;0.6415;0.902;[11];-3.6105;[0];0.078;0.02615;0.01875;0.0968;0.4065;237994.9;[4]
415;5afabd5ddcab560004a0b24f;19/5/2018 0:00;Art Peckham with Lorenzo Senni, Lanark Artefax, and SKY H1 at Unit 8 Studios (May 19, 2018);0.000637;Saturday;51.5409141;-0.0568147;26;10449;0.479;0.684;[0];-8.391;[0];0.0596;0.02765;0.813;0.1225;0.163;270221.3077;[4]
439;5afabda2dcab560004a0b285;19/5/2018 0:00;Lethal Bizzle at Electric Brixton (May 19, 2018);0.017182;Saturday;51.4598359;-0.1170324;57;94225;0.75;0.877;[1];-4.5;[1];0.2725;0.01465;0;0.144;0.6395;195058.3;[4]
788;5afaeecbf4259d0004b0e661;15/4/2018 0:00;Max Chapman at BBC Radio One - Essential Mix (April 15, 2018);0.000453;Sunday;51.5078;-0.128;43;5138;0.804;0.9265;[1];-7.929;[0];0.05165;0.001105;0.894;0.08855;0.5715;361285.7;[4]
874;5afaefaaf4259d0004b0e72b;17/4/2018 0:00;Midori Takada with Jan Jelinek at Union Chapel (April 17, 2018);0.00201;Tuesday;51.5443277;-0.1028893;22;16281;0.408;0.315;[6];-18.074;[0];0.0614;0.528;0.884;0.108;0.237;388337.4545;[4]
877;5afaefb8f4259d0004b0e737;17/4/2018 0:00;SARIAH, Field Trip to the Moon, The Ethical Debating Society, Violet Haze, and 2 more… at Boondocks (April 17, 2018);0.00038;Tuesday;51.5255453;-0.0884392;0;315;0.619;0.498;[0];-9.856;[1];0.0379;0.0702;0.0282;0.104;0.353;200576;[4]
905;5afaf006f4259d0004b0e77d;18/4/2018 0:00;Tyondai Braxton with Kaitlyn Aurelia Smith, Qasim Naqvi, Edgard Varèse, and 2 more… at Queen Elizabeth Hall, Southbank Centre (April 18, 2018);0.002333;Wednesday;51.5112139;-0.1198244;35.5;32555;0.277;0.2875;[0];-18.466;[1];0.04455;0.8735;0.8245;0.1105;0.0775;308754.18;[4]
1082;5afaf23cf4259d0004b0e956;21/4/2018 0:00;The Queen's Birthday Party 2018;0.18987;Saturday;51.500786;-0.1781517;72;12212229;0.6255;0.624;[0];-6.7515;[1];0.05925;0.2175;0;0.118;0.532;211650.95;[4]
1429;5afcd4904054df00043ae4cd;23/5/2018 0:00;ALMA with Off Bloom at Heaven (May 23, 2018);0.010415;Wednesday;51.5079149;-0.1244919;59.5;74430;0.7225;0.697;[6];-4.6485;[0];0.08335;0.0695;7.60E-06;0.1185;0.4645;203804.6;[4]
1451;5afcd4d54054df00043ae4ff;23/5/2018 0:00;ALMA with Off Bloom at Heaven (May 23, 2018);0.010171;Wednesday;51.5079149;-0.1244919;59.5;74430;0.7225;0.697;[6];-4.6485;[0];0.08335;0.0695;7.60E-06;0.1185;0.4645;203804.6;[4]
1520;5afcd59a4054df00043ae59a;24/5/2018 0:00;Chromeo at XOYO (May 24, 2018);0.104438;Thursday;51.5255168;-0.0858669;64;224185;0.7955;0.7975;[8];-4.5175;[1];0.0479;0.1215;7.40E-07;0.10005;0.889;222134.9;[4]
1605;5aff78b484d273000431fe95;25/5/2018 0:00;Simon Patterson with John Askew and Will Atkinson at Ministry of Sound (May 25, 2018);0.005967;Friday;51.497496;-0.099585;35;40401;0.507;0.9525;[6];-6.195;[1];0.05305;0.0006725;0.688;0.24;0.24;283840.4;[4]
1628;5aff790884d273000431fed5;25/5/2018 0:00;Congo Natty, Daddy Freddy, Caspa, Jungle Warriors, and 9 more… at fabric (May 25, 2018);0.017112;Friday;51.5195531;-0.1024779;31;560333;0.717;0.823;[1];-6.1465;[1];0.09215;0.01095;0.00352;0.146;0.5035;318046.2447;[4]
1696;5aff79db84d273000431ff72;26/5/2018 0:00;The Vibrators with Menace at Islington Assembly Hall (May 26, 2018);0.005605;Saturday;51.5395158;-0.1024666;40;29432;0.489;0.884;[4];-7.49;[0];0.0515;0.00818;0.090115;0.1295;0.644;237611.95;[4]
1699;5aff7a0784d273000431ff90;26/5/2018 0:00;BreakBot at XOYO (May 26, 2018);0.035967;Saturday;51.5255168;-0.0858669;56;180861;0.83;0.57;[5];-6.6695;[0];0.0534;0.1175;0.0002925;0.08675;0.779;234304;[4]
1715;5aff7a4984d273000431ffc2;26/5/2018 0:00;Throwing Snow at Archspace (May 26, 2018);0.003896;Saturday;51.536671;-0.0758036;40;16742;0.582;0.822;[3];-8.231;[0];0.0433;0.0225;0.7825;0.1085;0.112;323211;[4]
1805;5b00c98663800d0004c40d95;27/5/2018 0:00;Doctor P, Rusko, and Funtcase at The Steelyard (May 27, 2018);0.070087;Sunday;51.510073;-0.0903667;49;383959;0.5855;0.906;[1];-3.1315;[1];0.087;0.00348;0.0333;0.2245;0.263;254444.8;[4]
53;5af9c7790cc9ab0004e22855;15/5/2018 0:00;Nadine Coyle at O2 Shepherd's Bush Empire (May 15, 2018) (CANCELLED) ;0.000959;Tuesday;51.503507;-0.2238407;36;11475;0.6635;0.879;[0];-4.7115;[0];0.0911;0.05095;9.35E-07;0.2185;0.5895;207213.7;[4]
91;5af9d773985cfc00044f816c;15/5/2018 0:00;Bodega at The Social (May 15, 2018);0.000605;Tuesday;51.5172521;-0.1407694;44;26444;0.5665;0.651;[8];-7.371;[0];0.221;0.2255;0;0.2655;0.2925;221668.7;[4]
120;5af9d7c5985cfc00044f81b2;16/5/2018 0:00;Circuit Des Yeux at Barbican Centre (May 16, 2018);0.000782;Wednesday;51.5198644;-0.0916989;25;5369;0.2535;0.4075;[1];-10.345;[0];0.034;0.788;0.333;0.111;0.06105;267400;[3]
129;5afab985dcab560004a0af3c;16/5/2018 0:00;Bodega at The Lock Tavern (May 16, 2018);0.000533;Wednesday;51.5431173;-0.1484239;44;26467;0.5665;0.651;[8];-7.371;[0];0.221;0.2255;0;0.2655;0.2925;221668.7;[4]
186;5afaba2fdcab560004a0afca;17/5/2018 0:00;God Is an Astronaut with Tim Bowness, White Ring, and Xenon Field at Electric Brixton (May 17, 2018);0.018975;Thursday;51.4598359;-0.1170324;31;144669;0.488;0.5735;[2];-9.009;[1];0.0347;0.02745;0.549;0.134;0.1725;286529.0333;[4]
220;5afaba8cdcab560004a0b01b;17/5/2018 0:00;Javier Moreno at Green Note (May 17, 2018);1.40E-05;Thursday;51.5374217;-0.1456995;4;150;0.389;0.3395;[7];-17.1705;[1];0.0409;0.379;0.897;0.108;0.218;377496.7;[4]
232;5afabaa9dcab560004a0b036;17/5/2018 0:00;Maribou State at Corsica Studios (May 17, 2018);0.012751;Thursday;51.4935647;-0.0987167;59;67272;0.704;0.5625;[2];-8.1465;[0];0.0412;0.4435;0.838;0.177;0.2735;230482.3;[4]
244;5afabacddcab560004a0b052;18/5/2018 0:00;Michael Wollny Trio, Michael Wollny, Christian Weber, and Eric Schaefer at Kings Place (May 18, 2018);0.000553;Friday;51.534649;-0.122138;31;6198;0.464;0.354;[1];-14.027;[1];0.0384;0.679;0.841;0.111;0.168;293687.5161;[4]
269;5afabb16dcab560004a0b08d;18/5/2018 0:00;DJ Spen at The Jazz Cafe (May 18, 2018);0.000639;Friday;51.5387092;-0.1430815;36;4040;0.802;0.691;[9];-7.1585;[0];0.0591;0.003245;0.0731;0.06125;0.738;395075.9;[4]
272;5afabb26dcab560004a0b099;18/5/2018 0:00;Art Department, Martin Buttrich, Nitin, Kevin Saunderson, and 2 more… at fabric (May 18, 2018);0.006861;Friday;51.5195531;-0.1024779;33;118478;0.75;0.6985;[1];-9.764;[1];0.0532;0.007715;0.854;0.1005;0.335;431928.463;[4]
291;5afabb73dcab560004a0b0d7;18/5/2018 0:00;Fritz Kalkbrenner at Electric Brixton (May 18, 2018);0.016611;Friday;51.4598359;-0.1170324;54;216194;0.737;0.61;[2];-10.8555;[1];0.0433;0.0302;0.7985;0.10185;0.406;333317.4;[4]
302;5afabb94dcab560004a0b0f4;18/5/2018 0:00;Detroit Swindle at Phonox (May 18, 2018);0.004583;Friday;51.464399;-0.1146492;46;29828;0.823;0.731;[2];-9.5865;[0];0.0918;0.03155;0.1715;0.1985;0.3985;385933.7;[4]
358;5afabc60dcab560004a0b18a;19/5/2018 0:00;Mr. Mendel with Marcel Vogel at The Jazz Cafe (May 19, 2018);0.000107;Saturday;51.5387092;-0.1430815;10.5;615;0.83;0.6635;[9];-8.3625;[1];0.0653;0.05095;0.06195;0.154;0.682;380005.4;[4]
360;5afabc69dcab560004a0b192;19/5/2018 0:00;Ricardo Villalobos, Craig Richards, Amir Javasoul, Powell, and 1 more… at fabric (May 19, 2018);0.009595;Saturday;51.5195531;-0.1024779;38;124749;0.781;0.4855;[1];-12.1925;[1];0.05585;0.027;0.8805;0.106;0.318;553771.3;[4]
372;5afabca0dcab560004a0b1ba;19/5/2018 0:00;DJ Harvey, Peggy Gou, HAAi, HOT CHIP MEGAMIX, and 4 more… at Printworks London (May 19, 2018);0.00119;Saturday;51.4975227;-0.0435162;24;30817;0.771;0.806;[1];-9.446;[1];0.0517;0.0108;0.731;0.097;0.583;397613.9649;[4]
377;5afabcafdcab560004a0b1c7;19/5/2018 0:00;Metro Area at XOYO (May 19, 2018) (CANCELLED) ;0.004809;Saturday;51.5255168;-0.0858669;34;7267;0.8095;0.5675;[8];-9.085;[1];0.05015;0.00708;0.868;0.091;0.7485;354887.2;[4]
381;5afabce5dcab560004a0b1e5;19/5/2018 0:00;Sef Kombo with Martin Ikin, Crystal Waters, Carlos Aries, and 10 more… at Ministry of Sound (May 19, 2018);0.01895;Saturday;51.497496;-0.099585;17;43508;0.801;0.823;[1];-7.902;[1];0.0564;0.00575;0.647;0.0864;0.574;319880.2198;[4]
408;5afabd36dcab560004a0b231;19/5/2018 0:00;Anjunadeep at XOYO (May 19, 2018);0.000779;Saturday;51.5255168;-0.0858669;;;;;;;;;;;;;;
440;5afabda4dcab560004a0b287;19/5/2018 0:00;Ben Böhmer at XOYO (May 19, 2018);0.000253;Saturday;51.5255168;-0.0858669;45;4338;0.713;0.5965;[0];-9.821;[1];0.0452;0.04525;0.8815;0.09435;0.151;368455.2;[4]
444;5afabdb0dcab560004a0b291;19/5/2018 0:00;Yotto at XOYO (May 19, 2018);0.003583;Saturday;51.5255168;-0.0858669;52;27876;0.643;0.836;[2];-7.9415;[1];0.03655;0.001322;0.877;0.09735;0.145;303524.3;[4]
460;5afabde2dcab560004a0b2b7;20/5/2018 0:00;Redtenbacher's Funkestra at The Boaters Inn (May 20, 2018);0.000147;Sunday;51.4188758;-0.3055867;23;2192;0.7335;0.8255;[0];-5.1035;[1];0.03945;0.0213;0.688;0.115;0.827;199143.6;[4]
481;5afabe2fdcab560004a0b2f3;20/5/2018 0:00;Jimpster at Archspace (May 20, 2018);0.003134;Sunday;51.536671;-0.0758036;37;9781;0.726;0.63;[4];-9.28;[0];0.0585;0.0741;0.796;0.0936;0.497;372622.7;[4]
493;5afabe4fdcab560004a0b30d;20/5/2018 0:00;Cece Peniston at Quaglino's (May 20, 2018);0.003379;Sunday;51.5072201;-0.1385825;49;24595;0.7585;0.739;[11];-6.645;[0];0.0411;0.00196;6.08E-05;0.06615;0.6295;262564.4;[4]
598;5afaeca7f4259d0004b0e472;13/4/2018 0:00;Nick Warren and Hernan Cattaneo at Ministry of Sound (April 13, 2018);0.003282;Friday;51.497496;-0.099585;35.5;84242;0.4605;0.496;[11];-11.6855;[1];0.0427;0.015085;0.8965;0.1535;0.1355;724308;[4]
629;5afaed23f4259d0004b0e4d7;13/4/2018 0:00;Redlight, Toddla T, Coco, Steel Banglez, and 14 more… at fabric (April 13, 2018);0.01844;Friday;51.5195531;-0.1024779;31.5;94467;0.6645;0.7995;[1];-5.9445;[1];0.0648;0.00918;0.1315;0.1205;0.3705;258965.5672;[4]
639;5afaed39f4259d0004b0e4ee;13/4/2018 0:00;Lee Foss at Egg London (April 13, 2018);0.005091;Friday;51.5418112;-0.1252273;44;30280;0.81;0.6005;[0];-7.124;[0];0.05515;0.00202;0.08485;0.0844;0.674;330980.4;[4]
652;5afaed57f4259d0004b0e50a;13/4/2018 0:00;Bondax at Village Underground (April 13, 2018);0.025511;Friday;51.5237877;-0.0780335;48;86698;0.7145;0.7315;[9];-6.727;[0];0.0688;0.0734;0.001375;0.1875;0.652;230724;[4]
690;5afaedb9f4259d0004b0e56e;14/4/2018 0:00;Bugged Out DJs with Swing Ting, Julio Bashmore, Lemmy Ashton, and 1 more… at Ministry of Sound (April 14, 2018);0.018099;Saturday;51.497496;-0.099585;21;51439;0.74;0.738;[5];-7.833;[1];0.0578;0.0664;0.441;0.111;0.635;288368.359;[4]
710;5afaedebf4259d0004b0e59d;14/4/2018 0:00;Apollonia (Dyed Soundorom, Dan Ghenacia & Shonky), Dan Ghenacia, Dyed Soundorom, Shonky, and 1 more… at fabric (April 14, 2018);0.001195;Saturday;51.5195531;-0.1024779;13.5;6396;0.805;0.794;[11];-9.2805;[0];0.0541;0.0005365;0.857;0.0858;0.584;442275.85;[4]
714;5afaedfaf4259d0004b0e5ab;14/4/2018 0:00;Frankie Feliciano, David Harness, D Malice, Kitty Amor, and 3 more… at The Prince of Wales (April 14, 2018);0.000202;Saturday;51.4615105;-0.1149433;19;1389;0.799;0.68;[4];-8.615;[0];0.0514;0.0125;0.541;0.092;0.757;493253.2245;[4]
734;5afaee3ff4259d0004b0e5e5;14/4/2018 0:00;Who's Who at Half Moon, Putney (April 14, 2018);0.001155;Saturday;51.4678461;-0.2217681;70;1610155;0.4505;0.7195;[2];-9.769;[1];0.03755;0.233;0.005675;0.143;0.3655;288376.7;[4]
735;5afaee41f4259d0004b0e5e7;14/4/2018 0:00;Lazare Hoche at STYX (April 14, 2018);5.90E-05;Saturday;51.58936;-0.0616867;19;716;0.8085;0.731;[9];-9.149;[0];0.07985;0.00915;0.874;0.09765;0.473;365241.2;[4]
749;5afaee62f4259d0004b0e605;14/4/2018 0:00;Vanilla Ace with Raffa Fl and DJ S.K.T at GSS WAREHOUSE (April 14, 2018);0.003214;Saturday;51.501631;-0.1001165;41;24742;0.802;0.914;[1];-7.278;[1];0.06015;0.0010375;0.636;0.08435;0.631;284069.7;[4]
751;5afaee6af4259d0004b0e60c;14/4/2018 0:00;O'Flynn, Dan Shake, Krywald & Farrer, and Raw Silk at Hangar London Fields (April 14, 2018);0.000451;Saturday;51.5388795;-0.0578761;25;8972;0.752;0.768;[0];-9.651;[1];0.0546;0.0424;0.603;0.109;0.524;355446.3333;[4]
777;5afaeeb0f4259d0004b0e645;15/4/2018 0:00;Aurie Styla with Slim, Babatunde, and Kevin J at O2 Forum Kentish Town (April 15, 2018);0.007192;Sunday;51.5521427;-0.1422245;21;36509;0.687;0.706;[0];-6.0325;[1];0.05515;0.271;3.30E-05;0.1095;0.5015;289985.3;[4]
801;5afaeee7f4259d0004b0e67f;15/4/2018 0:00;Rui Da Silva, Him & I, and Esee Free at Club Reina (April 15, 2018);0.007825;Sunday;51.5196655;-0.1021907;3;8208;0.744;0.7935;[4];-8.146;[0];0.05355;0.001345;0.4455;0.0843;0.566;378045.4;[4]
814;5afaef06f4259d0004b0e69a;16/4/2018 0:00;Bastille with To Kill a King at Royal Albert Hall (April 16, 2018);0.336614;Monday;51.500786;-0.1781517;58;2601651;0.5485;0.7435;[5];-7.074;[1];0.05015;0.129;3.11E-05;0.1565;0.44;223622.95;[4]
865;5afaef97f4259d0004b0e717;17/4/2018 0:00;Naughty Boy, Professor Green, Luisa Omielan, Emeli Sandé, and 5 more… at O2 Academy Brixton (April 17, 2018);0.14665;Tuesday;51.4651204;-0.1148897;59;2353959;0.62;0.7005;[0];-6.74;[1];0.0696;0.158;0;0.1115;0.4275;234391;[4]
920;5afaf02ff4259d0004b0e79f;18/4/2018 0:00;Way Out West at Hangar London Fields (April 18, 2018);0.011263;Wednesday;51.5388795;-0.0578761;51;18090;0.62;0.75;[0];-8.269;[0];0.0343;0.0219;0.8515;0.1475;0.2655;318736.2;[4]
997;5afaf10bf4259d0004b0e85c;19/4/2018 0:00;Lewis Bootle with SANSHA, DIDI (UK), Gecko, and 1 more… at Courtyard Theatre (April 19, 2018);0.001394;Thursday;51.5280396;-0.0834422;17.5;5370;0.7065;0.575;[4];-7.9625;[1];0.08385;0.4715;1.31E-05;0.115;0.562;232062.5357;[4]
1017;5afaf149f4259d0004b0e897;21/4/2018 0:00;Snap! with La Bouche and Jenny Berggren at Indigo at The O2 (April 21, 2018);0.03632;Saturday;51.5011333;0.0016653;56;118740;0.6545;0.784;[9];-7.159;[1];0.0363;0.0463;0.000111;0.135;0.661;251271.4333;[4]
1053;5afaf1d8f4259d0004b0e909;21/4/2018 0:00;Hunee, Palms Trax, Suzanne Kraft, Hyenah, and 3 more… at fabric (April 21, 2018);0.001659;Saturday;51.5195531;-0.1024779;29;46731;0.718;0.708;[7];-9.522;[0];0.0472;0.0053;0.839;0.0897;0.356;400283.0164;[4]
1055;5afaf1e5f4259d0004b0e913;21/4/2018 0:00;Kareful, Pholo, MYSTXRIVL, enjoii, and 3 more… at Birthdays (April 21, 2018);0.000277;Saturday;51.5517702;-0.0751825;26;6962;0.559;0.698;[9];-7.2075;[1];0.04135;0.0172;0.648;0.12;0.10035;222671.6364;[4]
1059;5afaf1ecf4259d0004b0e91b;21/4/2018 0:00;Henderson at The Slaughtered Lamb (April 21, 2018);4.80E-05;Saturday;51.5233496;-0.1011681;65;531654;0.494;0.3715;[0];-8.165;[1];0.04055;0.798;0;0.1135;0.2925;227926.5;[4]
1066;5afaf208f4259d0004b0e932;21/4/2018 0:00;Tom Zanetti at Ministry of Sound (April 21, 2018);0.00507;Saturday;51.497496;-0.099585;56;48005;0.8425;0.677;[8];-7.3825;[1];0.0807;0.02255;0.0032105;0.114;0.4385;244361.5;[4]
1103;5afaf269f4259d0004b0e980;21/4/2018 0:00;Seb Wildblood at Corsica Studios (April 21, 2018);0.000508;Saturday;51.4935647;-0.0987167;40;5217;0.7575;0.6445;[9];-11.118;[1];0.0453;0.297;0.8815;0.1055;0.519;372691.8;[4]
1132;5afaf2c8f4259d0004b0e9c8;22/4/2018 0:00;Tim Penn with Second Line at Ronnie Scott's (April 22, 2018);1.90E-05;Sunday;51.5134988;-0.131519;0;7;0.7965;0.6325;[1];-12.189;[0];0.10875;0.006185;0.889;0.10135;0.377;409510;[4]
1155;5afaf30cf4259d0004b0e9fa;6/5/2018 0:00;Scooter with DJ Jerome, Ultrabeat, and MC Keyes at O2 Academy Brixton (May 6, 2018);0.027808;Sunday;51.4651204;-0.1148897;43;171949;0.6635;0.852;[1];-5.788;[1];0.0583;0.0197;2.32E-05;0.128;0.3685;254730.4375;[4]
1165;5afaf32ef4259d0004b0ea19;6/5/2018 0:00;bassboy with Noisia (DJ Set), Rudimental (DJ Set), T.Q.D, and 3 more… at Queen Elizabeth Olympic Park (May 6, 2018);0.004679;Sunday;51.5432961;-0.0165517;41;20935;0.706;0.76;[11];-6.616;[0];0.07095;0.07685;0.0007075;0.1525;0.5175;226594.58;[4]
1166;5afaf343f4259d0004b0ea23;6/5/2018 0:00;DJ Q, Noisia, Digital Mystikz, Paul Woodford, and 9 more… at Queen Elizabeth Olympic Park (May 6, 2018);0.092687;Sunday;51.5432961;-0.0165517;47;742631;0.6955;0.754;[1];-7.478;[1];0.0599;0.0195;0.455;0.126;0.465;293939.7727;[4]
1171;5afaf34df4259d0004b0ea2f;6/5/2018 0:00;Davide Squillace at Unknown venue (May 6, 2018);0.001193;Sunday;51.5073509;-0.1277583;21;4174;0.7915;0.7175;[9];-10.731;[0];0.06065;0.0008275;0.8835;0.106;0.4135;447218.7;[4]
1177;5afaf357f4259d0004b0ea3b;6/5/2018 0:00;The Martinez Brothers at Old Fountain Studios (May 6, 2018);0.004104;Sunday;51.5610911;-0.2817981;45;68237;0.799;0.7915;[1];-7.9575;[0];0.0635;0.0004525;0.8845;0.09475;0.4745;346995.4;[4]
1187;5afaf37af4259d0004b0ea51;6/5/2018 0:00;Joe Claussell, Bradley Zero, Secretsundaze, carista, and 1 more… at Oval Space (May 6, 2018);0.000548;Sunday;51.5331547;-0.0592616;3.5;1735;0.725;0.821;[7];-7.025;[1];0.0536;0.00817;0.38;0.123;0.578;585558.6316;[4]
1194;5afaf3a6f4259d0004b0ea6d;6/5/2018 0:00;Bad Company UK, Calyx & TeeBee, Rene Lavice, Culture Shock, and 11 more… at fabric (May 6, 2018);0.004811;Sunday;51.5195531;-0.1024779;29.5;80213;0.598;0.89;[1];-3.883;[1];0.0872;0.00337;0.1665;0.222;0.4065;271282.2143;[4]
1195;5afaf3a8f4259d0004b0ea6f;6/5/2018 0:00;Joe T Vannelli at Gigalum (May 6, 2018);0.000966;Sunday;51.4537468;-0.1462999;27;2356;0.769;0.8445;[1];-7.326;[0];0.04665;0.00678;0.852;0.1515;0.188;350868.6;[4]
1206;5afaf3c5f4259d0004b0ea8a;6/5/2018 0:00;Ross From Friends at Dinerama Shoreditch (May 6, 2018);0.001296;Sunday;51.5234325;-0.0791284;50;22374;0.759;0.667;[1];-9.4735;[0];0.0522;0.0309;0.577;0.1275;0.5215;389676;[4]
1208;5afaf3cbf4259d0004b0ea8f;6/5/2018 0:00;Justin Robertson and Mylo at Model Market (May 6, 2018);0.02871;Sunday;51.460269;-0.0123754;35;14078;0.6815;0.855;[0];-6.1225;[1];0.05155;0.0154;0.167;0.106;0.525;300355.3889;[4]
1210;5afaf3cff4259d0004b0ea92;6/5/2018 0:00;Alexis Raphael at Ministry of Sound (May 6, 2018);0.001125;Sunday;51.497496;-0.099585;23;2481;0.804;0.7905;[1];-9.4875;[1];0.0626;0.004435;0.534;0.0763;0.504;382258;[4]
1213;5afaf3dcf4259d0004b0ea9f;6/5/2018 0:00;Lucy (Stroboscopic Artefacts), Rrose, D.Dan, JAY (Siren), and 1 more… at Corsica Studios (May 6, 2018);0.000721;Sunday;51.4935647;-0.0987167;25;8384;0.621;0.556;[8];-9.545;[1];0.047;0.0511;0.838;0.124;0.374;314240;[4]
1227;5afaf3fff4259d0004b0eabc;6/5/2018 0:00;Axel Boman with Skee Mask at The Bussey Building (May 6, 2018);0.004917;Sunday;51.4698579;-0.0682122;36.5;23645;0.6615;0.743;[2];-10.8805;[1];0.0476;0.030295;0.8865;0.1395;0.211;367440.25;[4]
1229;5afaf402f4259d0004b0eac0;6/5/2018 0:00;The 2 Bears at Shoreditch House (May 6, 2018);0.014179;Sunday;51.5243341;-0.0759549;38;37269;0.7115;0.611;[0];-8.331;[1];0.0384;0.02205;0.0615;0.181;0.506;263270.9;[4]
1282;5afaf4c1f4259d0004b0eb53;8/5/2018 0:00;Seafoam at The Dublin Castle (May 8, 2018);0.000152;Tuesday;51.5374217;-0.1456995;5;40;0.492;0.659;[1];-8.675;[1];0.0326;0.0016875;0.8305;0.145;0.557;217785;[4]
1286;5afaf4c9f4259d0004b0eb5b;8/5/2018 0:00;HONNE at Village Underground (May 8, 2018);0.031411;Tuesday;51.5237877;-0.0780335;68;242526;0.557;0.569;[0];-7.0135;[1];0.06445;0.207;0.0005035;0.134;0.4095;236828.3;[4]
1317;5afaf515f4259d0004b0eb9a;9/5/2018 0:00;Danny Bryant with Steve Hill at O2 Academy 2 Islington (May 9, 2018);0.000559;Wednesday;51.5345836;-0.1059202;34;5219;0.51;0.665;[0];-6.5505;[1];0.03445;0.0191;0.017505;0.148;0.3575;311656.9;[4]
1348;5afaf573f4259d0004b0ebe9;9/5/2018 0:00;Death and the Penguin and Suffer Like G Did with Young Braves and Midnight Mouth at The Fighting Cocks (May 9, 2018);0.000189;Wednesday;51.4106158;-0.2982417;6;1645;0.501;0.7435;[7];-5.805;[0];0.0484;0.00644;0.011435;0.143;0.5065;228471.5;[4]
1357;5afaf592f4259d0004b0ec03;9/5/2018 0:00;THABO at Rough Trade East (May 9, 2018);0.000268;Wednesday;51.521245;-0.0718398;34;878;0.6125;0.3135;[7];-11.94;[0];0.12;0.367;0.00012305;0.1355;0.2915;259110.9;[4]
1488;5afcd53e4054df00043ae551;24/5/2018 0:00;Delaney Davidson with Michael J Sheehy at Servant Jazz Quarters (May 24, 2018);0.000476;Thursday;51.5486354;-0.0767334;19.5;3213;0.499;0.3715;[4];-8.3555;[1];0.0402;0.7225;0.00873;0.1125;0.371;263535.3;[4]
1543;5afcd5f64054df00043ae5d9;24/5/2018 0:00;Dusky with Wookie, L-VIS 1990, Jamz Supernova, and 4 more… at Corsica Studios (May 24, 2018);0.017274;Thursday;51.4935647;-0.0987167;30.5;306454;0.733;0.7585;[1];-7.556;[0];0.05445;0.0365;0.481;0.1055;0.5345;299808.9;[4]
1560;5aff775084d273000431fdbc;21/5/2018 0:00;White Ring at The Shacklewell Arms (May 21, 2018);0.002656;Monday;51.5517116;-0.0719982;31;14065;0.494;0.6965;[7];-6.6335;[1];0.0425;0.00321;0.3375;0.128;0.1335;240840.6;[4]
, 3.04e-05, 0, 2.72e-05, 0.0116, 2.86e-06, 0.0106, 0.000116, 0.0202, 0.12, 0.0175, 0, 0.0316, 0.00601, 0.0082, 0.477, 0.0191, 0.00607, 0.00767, 4.71e-05, 0.000133, 0.00938, 0.0949, 0.000433, 7.43e-06, 0.0172, 0.00786, 0.315, 0.201, 0.0939, 0.352, 0.0142, 5.54e-06, 0.313, 0.595, 0.00862, 0.339, 0.0019, 1.73e-06, 1.8e-06, 0.00153, 5.96e-06, 0.0038, 0.00161, 0, 0.156, 0.00226, 0, 0.366, 0.073, 0.139, 0.0981, 0, 0.000106, 0, 0.766, 0.00039, 0, 0.00128, 7.22e-05, 0.00383, 7.91e-05, 0.0229, 0.124, 0.0122, 4.47e-05, 0, 3.79e-05, 0.000102, 0.00161, 0.145, 1.94e-05, 0.00129, 0.0245, 0.00419, 0.000545, 0.196, 0, 0, 0.00625, 0, 0, 1.48e-06, 0, 8.28e-05, 0.00194, 0.0173, 0.000384, 0.0641, 0.00157, 0, 0.0474, 0.00037, 0.00302, 0.864, 0.0063, 0.2, 0.725, 0.653, 0.625, 0.00374, 0.000525, 0.00013, 0.00178, 0.131, 0.00411, 0.00509, 0.00016, 0.0962, 0.0229, 0.00096, 0.546, 0.000385, 1.53e-05, 1.51e-06, 8.66e-06, 6.22e-06, 0.0196, 0, 0.00187, 0.0586, 0, 0.000554, 0.141, 0.000604, 8.4e-06, 0, 0.00186, 0.00216, 0.000108, 0.0142, 0.00165, 0.375, 0.00407, 0.00132, 8.84e-06, 0.00773, 0.743, 0.907, 0.913, 0.819, 0.892, 0.707, 0.888, 0.0739, 0.911, 0.881, 0.00606, 0.000931, 0.0121, 5.47e-06, 2.01e-05, 1.43e-06, 0.000762, 0.000218, 0.00146, 8.99e-05, 0.755, 0.0576, 0.369, 0.442, 0.0534, 0.0342, 0.0134, 0.651, 0.00413, 0.00689, 0.723, 0.0242, 0.000727, 0.946, 0.000664, 0.000123, 0.839, 9.09e-06, 0.819, 5.67e-06, 0, 0, 0, 0, 0, 0, 0, 0, 0, 0, 0.000218, 0.000656, 0.704, 0.0142, 0.128, 0.0357, 0.781, 0.164, 0.846, 0.108, 2.07e-05, 0.00209, 0.0346, 0.000748, 0.414, 0.0161, 0.00113, 0.0373, 0.922, 0.139, 0.804, 0.298, 0.773, 0.821, 0.896, 0.783, 0.714, 0.273, 0.00544, 0.914, 1.9e-05, 0, 3.1e-06, 0.00024, 0.000215, 0.000157, 0.0184, 1.92e-05, 1.88e-06, 4.27e-06, 1.11e-06, 0, 8.25e-05, 0, 0.423, 0, 1.88e-05, 0.0113, 0.000116, 0, 0.00474, 0, 0.00352, 0, 0, 0, 0.000168, 0, 0, 3e-06, 0.764, 0.0112, 0.0013, 0.968, 0.0603, 0.0383, 0.0108, 0.529, 0.359, 0.138, 1.28e-05, 4.01e-05, 2.27e-06, 4.05e-05, 0.000201, 0.149, 0, 0.0478, 1.63e-06, 0.000329, 0.000133, 0.379, 0.798, 0.905, 0.912, 0.109, 0.878, 0.898, 0.92, 0.515, 0.829, 0.815, 0.655, 0.893, 0.87, 0.88, 0.884, 0.902, 0.884, 0.894, 0.878, 0.224, 0.897, 0.855, 0.899, 0.864, 0.916, 0.73, 0.825, 0.719, 5.72e-05, 6.17e-05, 0.0551, 0.503, 0.00426, 0.00132, 0.577, 0.000116, 0.0014, 0.0049, 0.0415, 0.802, 0.00518, 0.0363, 0.202, 0.000461, 0.112, 0.0116, 0.0517, 0.197, 0.000114, 0.000375, 0.0168, 1.95e-05, 9.16e-06, 0.00739, 0.124, 0.000118, 0.369, 0.0145, 0.00211, 0.0106, 0.0148, 0.0085, 0.0177, 0.00186, 4.12e-05, 0.000234, 0.697, 0, 0.599, 0.911, 0.899, 0.941, 0.876, 0.818, 0.873, 0.907, 0.933, 0.823, 0.499, 0.0134, 0.745, 0.888, 0.918, 0.812, 0.896, 0.378, 0.891, 0.767, 0.0406, 0.00991, 0.000581, 0.00307, 0.021, 1.91e-05, 0.0999, 4.3e-05, 0.0515, 0.00413, 0.0284, 0.0112, 0.365, 0.292, 0.0558, 0.0352, 0.279, 0.0133, 0.000732, 0.0392, 0.0014, 0.338, 0, 3.08e-06, 0.0466, 0.000434, 0.48, 4.8e-05, 7.68e-05, 0.0327, 0.933, 0.886, 0.886, 0.854, 0.409, 0.855, 0.775, 0.936, 0.802, 0.848, 0.873, 0.832, 0.465, 0.67, 0.808, 0.921, 0.924, 0.665, 0.725, 0.897, 0.00126, 0.0548, 0.00156, 0.485, 0.0107, 0.252, 0.229, 0.0322, 0.095, 0.574, 0.0644, 0.655, 0.924, 0.849, 0.924, 0.849, 0.634, 0.927, 0.485, 0.941, 0, 0.00117, 0.000655, 9.65e-05, 0.00383, 9.89e-05, 0.00748, 0.000122, 0, 0, 0.902, 0.94, 0.872, 0.961, 0.872, 0.96, 0.858, 0.909, 0.915, 0.928, 0.00353, 0.0917, 0.031, 0.197, 0.0356, 0.0205, 0.399, 0.0354, 0.0416, 2.89e-05, 0.773, 0.916, 0.472, 0.883, 0.885, 0.884, 0.311, 0.943, 0.894, 0.839, 0.0357, 0.193, 8.5e-06, 1.17e-05, 0.0454, 0.024, 0.00401, 0.000349, 0.0165, 0.0439, 0, 0.903, 0.000374, 0.0429, 0.904, 0.00121, 0.878, 0.859, 0.775, 0.841, 0.846, 0.775, 0.902, 5.82e-06, 0.893, 0.355, 0.929, 0.934, 0.877, 0.665, 0.821, 0.105, 0.702, 0.787, 0.234, 0.123, 0.17, 0.0116, 0.249, 0.0798, 0.234, 0.0108, 0.345, 0.502, 0, 0.069, 0.011, 0, 2.77e-05, 0.00924, 0, 0, 0, 0, 0.761, 0.9, 0.808, 0.0493, 0.837, 0.877, 0.903, 0.89, 0.519, 0.819, 0.464, 0.0515, 0.00705, 5.33e-05, 0.000127, 0.107, 0.0184, 0.0752, 3.86e-05, 0.313, 0.803, 0.787, 0.597, 0.0773, 0.784, 0.802, 0.839, 0.917, 0.726, 0.762, 0.0698, 0.696, 0.225, 0.136, 0.00314, 0.0649, 0.00134, 0.439, 0.00712, 0.217, 0.446, 0.844, 0.00588, 0.845, 0.0129, 0.813, 0.0812, 0.706, 0.169, 0.858, 0.0446, 0.897, 0.868, 0.887, 0.00324, 0.588, 0.498, 0.722, 0.773, 0.0144, 0, 9.1e-05, 0, 0, 1.34e-06, 0.0202, 6.5e-05, 0.0583, 0.0356, 1.27e-06, 0.0136, 0.931, 0.589, 0.917, 0.733, 0.311, 0.921, 0.814, 0.932, 0.86, 0.864, 0.918, 0.85, 0.792, 0.854, 0.948, 0.903, 0.603, 0.849, 0.787, 1.61e-05, 0.00148, 5.01e-05, 0.0177, 0.674, 0.889, 0.482, 0.735, 0.893, 0.829, 0.51, 0.891, 0.81, 0.844, 0.818, 0.883, 0.909, 0.932, 0.972, 0.95, 0.848, 1.38e-06, 0.872, 0.391, 0.131, 0.00499, 0.722, 0.733, 0.921, 0.00265, 0.0869, 0, 0.873, 0.871, 0.793, 0.944, 0.925, 0.211, 0.846, 0.823, 0.808, 0.952, 0.964, 0.0843, 0.881, 0.924, 0.81, 0.864, 0.809, 0.902, 0.899, 0.931, 0.886, 0.000667, 0.00401, 1.6e-05, 0.133, 0.906, 0.00222, 4.5e-05, 0.000494, 0.000178, 0.865], 'instrumentalness_mean': 0.32711598733624453, 'instrumentalness_median': 0.0593, 'instrumentalness_min': 0, 'instrumentalness_max': 0.972, 'liveness': [0.128, 0.109, 0.101, 0.107, 0.0998, 0.084, 0.147, 0.231, 0.21, 0.1, 0.135, 0.0817, 0.157, 0.0944, 0.128, 0.271, 0.0801, 0.0891, 0.0901, 0.0781, 0.289, 0.116, 0.305, 0.074, 0.111, 0.0908, 0.248, 0.0605, 0.105, 0.089, 0.0646, 0.497, 0.195, 0.127, 0.141, 0.0737, 0.125, 0.0908, 0.104, 0.318, 0.0701, 0.544, 0.298, 0.291, 0.403, 0.0869, 0.383, 0.104, 0.06, 0.293, 0.0839, 0.116, 0.0516, 0.235, 0.127, 0.13, 0.109, 0.0717, 0.905, 0.0895, 0.824, 0.0985, 0.237, 0.0968, 0.07, 0.303, 0.113, 0.0817, 0.652, 0.119, 0.0691, 0.382, 0.292, 0.07, 0.0743, 0.0957, 0.101, 0.149, 0.435, 0.13, 0.0927, 0.0652, 0.113, 0.354, 0.236, 0.357, 0.115, 0.139, 0.115, 0.111, 0.271, 0.0783, 0.101, 0.0753, 0.126, 0.0991, 0.2, 0.0828, 0.21, 0.0944, 0.261, 0.3, 0.108, 0.114, 0.138, 0.131, 0.593, 0.16, 0.149, 0.311, 0.04, 0.648, 0.0977, 0.11, 0.0217, 0.115, 0.233, 0.0782, 0.0781, 0.43, 0.136, 0.0695, 0.313, 0.091, 0.391, 0.088, 0.0907, 0.174, 0.318, 0.332, 0.12, 0.221, 0.121, 0.0891, 0.171, 0.0901, 0.0397, 0.0634, 0.151, 0.216, 0.107, 0.654, 0.101, 0.609, 0.512, 0.0923, 0.0825, 0.104, 0.228, 0.111, 0.098, 0.114, 0.102, 0.182, 0.357, 0.107, 0.0866, 0.28, 0.0971, 0.114, 0.103, 0.0814, 0.212, 0.391, 0.0784, 0.165, 0.0651, 0.111, 0.0889, 0.101, 0.108, 0.281, 0.115, 0.0749, 0.104, 0.11, 0.207, 0.177, 0.306, 0.125, 0.123, 0.102, 0.295, 0.196, 0.109, 0.152, 0.109, 0.0874, 0.113, 0.141, 0.477, 0.0995, 0.234, 0.181, 0.314, 0.0971, 0.138, 0.0605, 0.115, 0.239, 0.0504, 0.0392, 0.0914, 0.138, 0.0299, 0.0772, 0.329, 0.227, 0.0997, 0.16, 0.0838, 0.103, 0.298, 0.246, 0.0813, 0.267, 0.0737, 0.134, 0.0879, 0.109, 0.111, 0.167, 0.278, 0.0511, 0.0931, 0.0625, 0.338, 0.0987, 0.359, 0.107, 0.108, 0.109, 0.142, 0.108, 0.0963, 0.0948, 0.128, 0.0731, 0.168, 0.131, 0.0648, 0.16, 0.119, 0.0855, 0.112, 0.0763, 0.107, 0.34, 0.122, 0.134, 0.096, 0.115, 0.522, 0.121, 0.103, 0.131, 0.103, 0.183, 0.106, 0.0902, 0.0592, 0.0968, 0.0856, 0.136, 0.528, 0.191, 0.0851, 0.117, 0.0922, 0.169, 0.206, 0.139, 0.125, 0.152, 0.104, 0.0806, 0.37, 0.069, 0.116, 0.0692, 0.0919, 0.106, 0.167, 0.324, 0.201, 0.27, 0.232, 0.124, 0.187, 0.0728, 0.574, 0.0912, 0.41, 0.637, 0.305, 0.116, 0.375, 0.127, 0.521, 0.907, 0.0822, 0.212, 0.0817, 0.0904, 0.0962, 0.106, 0.0969, 0.243, 0.105, 0.115, 0.0565, 0.0943, 0.134, 0.0933, 0.115, 0.106, 0.127, 0.106, 0.225, 0.115, 0.106, 0.0824, 0.114, 0.123, 0.0792, 0.108, 0.0664, 0.0891, 0.183, 0.0874, 0.0947, 0.352, 0.0828, 0.0897, 0.147, 0.193, 0.359, 0.124, 0.0957, 0.309, 0.205, 0.31, 0.289, 0.126, 0.425, 0.104, 0.199, 0.279, 0.11, 0.103, 0.112, 0.0945, 0.107, 0.104, 0.0942, 0.0842, 0.0401, 0.358, 0.115, 0.0541, 0.183, 0.0703, 0.0944, 0.107, 0.0698, 0.0725, 0.54, 0.111, 0.101, 0.104, 0.114, 0.0776, 0.0961, 0.372, 0.378, 0.115, 0.0784, 0.182, 0.25, 0.116, 0.258, 0.399, 0.118, 0.0718, 0.153, 0.0626, 0.335, 0.0951, 0.107, 0.0924, 0.0674, 0.109, 0.125, 0.116, 0.145, 0.102, 0.102, 0.0589, 0.136, 0.114, 0.52, 0.414, 0.111, 0.118, 0.404, 0.124, 0.102, 0.731, 0.106, 0.0344, 0.484, 0.496, 0.279, 0.0425, 0.109, 0.141, 0.0993, 0.19, 0.0796, 0.125, 0.0794, 0.113, 0.0799, 0.0859, 0.356, 0.0779, 0.151, 0.083, 0.931, 0.0582, 0.127, 0.312, 0.128, 0.107, 0.11, 0.0945, 0.15, 0.0748, 0.193, 0.103, 0.0763, 0.199, 0.0936, 0.17, 0.337, 0.253, 0.361, 0.7, 0.105, 0.0783, 0.167, 0.0894, 0.347, 0.0829, 0.0878, 0.113, 0.0969, 0.0994, 0.167, 0.116, 0.122, 0.111, 0.166, 0.513, 0.703, 0.122, 0.116, 0.104, 0.123, 0.117, 0.0546, 0.2, 0.109, 0.0557, 0.119, 0.126, 0.0682, 0.138, 0.0546, 0.0725, 0.0772, 0.245, 0.241, 0.145, 0.345, 0.182, 0.141, 0.106, 0.149, 0.133, 0.113, 0.115, 0.103, 0.126, 0.153, 0.128, 0.317, 0.469, 0.584, 0.127, 0.0805, 0.0949, 0.093, 0.0774, 0.0765, 0.0859, 0.0782, 0.0625, 0.301, 0.21, 0.12, 0.3, 0.0828, 0.139, 0.0784, 0.0575, 0.0692, 0.0907, 0.123, 0.106, 0.109, 0.412, 0.185, 0.132, 0.228, 0.101, 0.138, 0.372, 0.0902, 0.0989, 0.181, 0.123, 0.063, 0.0397, 0.0841, 0.0881, 0.109, 0.216, 0.0463, 0.175, 0.0565, 0.313, 0.112, 0.102, 0.0747, 0.0347, 0.0575, 0.37, 0.329, 0.0831, 0.029, 0.0953, 0.109, 0.256, 0.26, 0.107, 0.0714, 0.0665, 0.198, 0.263, 0.0743, 0.155, 0.108, 0.0908, 0.0835, 0.0423, 0.0759, 0.0587, 0.339, 0.11, 0.0998, 0.143, 0.111, 0.103, 0.0657, 0.13, 0.185, 0.141, 0.23, 0.193, 0.119, 0.699, 0.18, 0.0695, 0.159, 0.566, 0.0857, 0.0953, 0.707, 0.057, 0.0548, 0.164, 0.0999, 0.0726, 0.407, 0.118, 0.107, 0.176, 0.0981, 0.109, 0.074, 0.0985, 0.109, 0.0136, 0.0436, 0.102, 0.115, 0.111, 0.107, 0.0852, 0.0944, 0.134, 0.11, 0.09, 0.109, 0.0876, 0.105, 0.118, 0.1, 0.171, 0.11, 0.207, 0.118, 0.111, 0.0954, 0.142, 0.0932, 0.0504, 0.106, 0.0541, 0.0602, 0.66, 0.217, 0.0565, 0.227, 0.173, 0.0516, 0.13, 0.0511, 0.122, 0.114, 0.128, 0.0963, 0.0812, 0.126, 0.103, 0.182, 0.353, 0.114, 0.731, 0.0523, 0.351, 0.126, 0.109, 0.41, 0.0687, 0.173, 0.178, 0.0342, 0.111, 0.0454, 0.0682, 0.0947, 0.483, 0.101, 0.0903, 0.16, 0.0939, 0.115, 0.172, 0.156, 0.147, 0.161, 0.0864, 0.102, 0.115, 0.095, 0.112, 0.305, 0.0598, 0.147, 0.113, 0.123, 0.229, 0.333, 0.232, 0.29], 'liveness_mean': 0.16616157205240176, 'liveness_median': 0.113, 'liveness_min': 0.0136, 'liveness_max': 0.931, 'valence': [0.16, 0.35, 0.342, 0.282, 0.47, 0.422, 0.668, 0.383, 0.565, 0.467, 0.331, 0.24, 0.172, 0.345, 0.537, 0.402, 0.158, 0.132, 0.217, 0.17, 0.788, 0.446, 0.655, 0.794, 0.529, 0.683, 0.581, 0.385, 0.537, 0.544, 0.836, 0.305, 0.719, 0.905, 0.634, 0.859, 0.96, 0.709, 0.964, 0.761, 0.779, 0.164, 0.791, 0.875, 0.0756, 0.257, 0.147, 0.739, 0.2, 0.303, 0.306, 0.381, 0.109, 0.607, 0.37, 0.272, 0.701, 0.316, 0.545, 0.35, 0.496, 0.283, 0.491, 0.583, 0.527, 0.508, 0.661, 0.282, 0.424, 0.297, 0.25, 0.0357, 0.525, 0.837, 0.239, 0.515, 0.0368, 0.52, 0.285, 0.361, 0.105, 0.637, 0.738, 0.59, 0.666, 0.625, 0.245, 0.269, 0.361, 0.804, 0.945, 0.884, 0.894, 0.952, 0.7, 0.898, 0.775, 0.946, 0.597, 0.599, 0.283, 0.184, 0.403, 0.275, 0.294, 0.1, 0.217, 0.424, 0.274, 0.584, 0.794, 0.781, 0.795, 0.396, 0.977, 0.0909, 0.695, 0.78, 0.344, 0.839, 0.785, 0.462, 0.362, 0.811, 0.377, 0.957, 0.52, 0.863, 0.361, 0.771, 0.606, 0.523, 0.637, 0.472, 0.784, 0.266, 0.612, 0.417, 0.522, 0.151, 0.178, 0.175, 0.265, 0.613, 0.563, 0.442, 0.415, 0.221, 0.394, 0.165, 0.738, 0.831, 0.84, 0.585, 0.526, 0.96, 0.536, 0.586, 0.913, 0.628, 0.477, 0.158, 0.558, 0.635, 0.776, 0.171, 0.421, 0.522, 0.461, 0.156, 0.233, 0.204, 0.395, 0.491, 0.219, 0.723, 0.662, 0.75, 0.628, 0.292, 0.394, 0.322, 0.504, 0.155, 0.431, 0.504, 0.289, 0.56, 0.495, 0.476, 0.484, 0.597, 0.724, 0.531, 0.601, 0.185, 0.514, 0.772, 0.501, 0.315, 0.69, 0.594, 0.731, 0.86, 0.862, 0.751, 0.862, 0.864, 0.934, 0.647, 0.802, 0.331, 0.665, 0.274, 0.466, 0.182, 0.148, 0.082, 0.124, 0.0434, 0.792, 0.619, 0.93, 0.915, 0.33, 0.965, 0.376, 0.842, 0.608, 0.109, 0.09, 0.413, 0.207, 0.134, 0.367, 0.339, 0.429, 0.235, 0.103, 0.353, 0.142, 0.504, 0.225, 0.154, 0.16, 0.46, 0.333, 0.271, 0.121, 0.361, 0.537, 0.32, 0.567, 0.318, 0.222, 0.329, 0.249, 0.244, 0.26, 0.463, 0.442, 0.656, 0.415, 0.381, 0.481, 0.419, 0.119, 0.447, 0.728, 0.144, 0.714, 0.534, 0.706, 0.816, 0.569, 0.454, 0.746, 0.531, 0.845, 0.766, 0.221, 0.3, 0.118, 0.345, 0.479, 0.4, 0.535, 0.247, 0.124, 0.238, 0.772, 0.884, 0.807, 0.929, 0.783, 0.671, 0.566, 0.595, 0.869, 0.513, 0.111, 0.404, 0.0829, 0.122, 0.0371, 0.0823, 0.153, 0.308, 0.0392, 0.246, 0.608, 0.457, 0.527, 0.174, 0.308, 0.294, 0.311, 0.468, 0.36, 0.122, 0.607, 0.724, 0.742, 0.701, 0.67, 0.143, 0.796, 0.243, 0.562, 0.87, 0.625, 0.451, 0.519, 0.659, 0.538, 0.351, 0.305, 0.875, 0.574, 0.695, 0.351, 0.196, 0.636, 0.134, 0.549, 0.268, 0.503, 0.314, 0.273, 0.318, 0.712, 0.0397, 0.116, 0.113, 0.172, 0.623, 0.26, 0.419, 0.245, 0.222, 0.303, 0.299, 0.226, 0.165, 0.626, 0.714, 0.036, 0.235, 0.287, 0.117, 0.285, 0.498, 0.232, 0.608, 0.651, 0.343, 0.14, 0.681, 0.63, 0.278, 0.16, 0.115, 0.086, 0.0864, 0.113, 0.039, 0.262, 0.13, 0.0987, 0.074, 0.372, 0.837, 0.744, 0.727, 0.686, 0.12, 0.0763, 0.693, 0.804, 0.641, 0.156, 0.345, 0.803, 0.0709, 0.279, 0.051, 0.608, 0.504, 0.0382, 0.518, 0.618, 0.37, 0.238, 0.165, 0.266, 0.0325, 0.823, 0.869, 0.674, 0.454, 0.738, 0.887, 0.972, 0.553, 0.855, 0.684, 0.666, 0.334, 0.53, 0.935, 0.219, 0.218, 0.308, 0.0382, 0.032, 0.41, 0.278, 0.178, 0.158, 0.153, 0.629, 0.664, 0.529, 0.744, 0.653, 0.586, 0.0901, 0.442, 0.513, 0.7, 0.103, 0.0932, 0.0671, 0.0368, 0.0352, 0.154, 0.0357, 0.0399, 0.0493, 0.29, 0.288, 0.196, 0.477, 0.501, 0.194, 0.0397, 0.247, 0.38, 0.583, 0.433, 0.255, 0.787, 0.444, 0.696, 0.452, 0.484, 0.49, 0.283, 0.796, 0.225, 0.751, 0.039, 0.446, 0.529, 0.572, 0.231, 0.851, 0.178, 0.29, 0.287, 0.824, 0.0935, 0.646, 0.25, 0.195, 0.0946, 0.336, 0.434, 0.611, 0.443, 0.22, 0.436, 0.684, 0.64, 0.721, 0.464, 0.396, 0.131, 0.403, 0.378, 0.156, 0.223, 0.376, 0.319, 0.463, 0.147, 0.301, 0.187, 0.714, 0.251, 0.196, 0.357, 0.537, 0.0456, 0.641, 0.122, 0.658, 0.421, 0.131, 0.442, 0.531, 0.336, 0.421, 0.284, 0.132, 0.0493, 0.266, 0.474, 0.605, 0.0353, 0.526, 0.175, 0.151, 0.0344, 0.194, 0.504, 0.277, 0.883, 0.57, 0.862, 0.62, 0.0476, 0.209, 0.171, 0.869, 0.936, 0.515, 0.964, 0.303, 0.612, 0.957, 0.475, 0.176, 0.59, 0.699, 0.842, 0.96, 0.881, 0.521, 0.835, 0.954, 0.458, 0.795, 0.672, 0.231, 0.393, 0.417, 0.126, 0.28, 0.688, 0.483, 0.326, 0.403, 0.474, 0.686, 0.858, 0.349, 0.0502, 0.936, 0.724, 0.683, 0.926, 0.853, 0.261, 0.912, 0.16, 0.448, 0.879, 0.677, 0.291, 0.328, 0.296, 0.503, 0.736, 0.552, 0.543, 0.221, 0.752, 0.692, 0.868, 0.133, 0.727, 0.363, 0.501, 0.0477, 0.121, 0.52, 0.196, 0.0453, 0.254, 0.0335, 0.0398, 0.211, 0.0561, 0.15, 0.238, 0.113, 0.533, 0.292, 0.423, 0.742, 0.545, 0.362, 0.889, 0.451, 0.282, 0.115, 0.393, 0.965, 0.377, 0.32, 0.398, 0.598, 0.168, 0.0666, 0.186, 0.62, 0.53, 0.712, 0.538, 0.302, 0.438, 0.405, 0.489, 0.604, 0.271, 0.493, 0.568, 0.374, 0.354, 0.405, 0.651, 0.124, 0.423, 0.118, 0.306, 0.87, 0.293, 0.388, 0.38, 0.695, 0.651, 0.472, 0.606, 0.733, 0.0805, 0.542, 0.258, 0.376, 0.177, 0.534, 0.876, 0.494, 0.388, 0.288, 0.278, 0.313], 'valence_mean': 0.447654730713246, 'valence_median': 0.431, 'valence_min': 0.032, 'valence_max': 0.977, 'tempo': [100.351, 125.051, 91.537, 126.001, 128.189, 122.908, 124.038, 130.08, 119.982, 109.351, 84.804, 128.924, 106.435, 76.715, 104.344, 99.984, 124.881, 123.151, 106.965, 188.623, 170.84, 91.99, 110.009, 114.0, 75.009, 119.997, 166.014, 147.507, 75.004, 96.959, 119.7, 97.54, 144.087, 141.324, 97.996, 121.081, 150.919, 93.005, 109.071, 115.985, 131.983, 119.839, 132.009, 131.986, 132.01, 158.743, 124.013, 125.035, 139.936, 120.094, 121.974, 138.762, 72.074, 122.262, 92.014, 97.967, 120.318, 137.466, 119.998, 106.961, 113.015, 117.055, 85.03, 115.001, 107.271, 113.046, 170.065, 111.984, 116.966, 114.979, 126.143, 134.941, 172.099, 136.235, 146.195, 109.451, 151.983, 118.589, 106.003, 97.026, 183.051, 127.993, 96.032, 111.985, 148.001, 96.004, 164.993, 69.012, 159.9, 136.059, 125.992, 119.997, 122.039, 100.016, 104.948, 121.033, 127.984, 129.934, 95.984, 125.992, 81.305, 79.275, 93.06, 117.693, 79.929, 163.801, 119.093, 123.999, 78.054, 84.863, 98.004, 169.442, 142.584, 113.003, 135.997, 176.526, 116.981, 124.013, 151.011, 121.102, 117.97, 112.009, 139.977, 119.012, 139.799, 121.041, 141.952, 130.024, 139.981, 106.035, 204.429, 179.524, 150.019, 107.094, 188.061, 139.287, 94.036, 116.989, 78.732, 133.377, 128.905, 132.067, 127.206, 104.018, 145.992, 131.989, 127.922, 139.428, 138.388, 78.029, 202.376, 110.689, 112.747, 121.352, 120.163, 112.832, 96.776, 127.026, 185.963, 131.502, 101.967, 99.851, 119.988, 119.954, 116.054, 86.923, 119.989, 164.048, 140.035, 139.474, 115.98, 91.016, 104.02, 119.233, 84.008, 98.021, 98.011, 104.996, 115.051, 83.008, 80.032, 140.039, 84.036, 151.276, 79.646, 82.165, 162.411, 87.678, 77.841, 89.744, 89.455, 102.758, 144.902, 130.773, 92.059, 99.124, 123.064, 200.3, 84.746, 103.366, 118.579, 118.588, 118.97, 122.008, 123.995, 121.984, 105.988, 117.97, 113.961, 120.01, 104.149, 120.004, 123.042, 96.916, 113.003, 122.043, 95.815, 103.967, 115.03, 88.421, 125.01, 104.991, 109.96, 115.963, 112.82, 104.976, 102.99, 111.971, 102.382, 130.006, 87.082, 75.208, 96.394, 57.0, 99.732, 118.091, 149.975, 100.042, 79.031, 102.304, 141.504, 99.529, 131.958, 121.97, 76.168, 70.885, 99.921, 123.139, 145.926, 78.572, 117.023, 144.982, 129.903, 164.971, 113.818, 83.827, 111.884, 111.86, 140.949, 163.899, 130.579, 173.987, 146.122, 98.01, 104.215, 189.895, 175.558, 105.601, 158.965, 165.846, 131.99, 114.992, 106.975, 203.681, 95.063, 125.036, 203.532, 127.988, 107.017, 125.074, 110.999, 114.995, 119.981, 124.022, 100.024, 119.997, 115.02, 118.006, 114.333, 123.984, 91.452, 82.207, 109.209, 84.615, 88.223, 87.325, 85.419, 80.656, 103.605, 82.616, 120.011, 83.046, 122.02, 120.008, 118.017, 112.966, 127.972, 82.147, 119.014, 122.984, 102.994, 119.971, 90.021, 107.984, 109.994, 114.984, 124.973, 119.985, 139.925, 112.041, 120.008, 119.992, 115.007, 169.967, 119.947, 119.978, 109.006, 138.747, 114.987, 130.973, 155.939, 81.004, 101.02, 155.967, 105.06, 144.92, 143.046, 185.02, 146.036, 139.946, 99.997, 139.939, 139.919, 118.385, 164.036, 114.003, 114.0, 99.995, 74.981, 119.924, 119.991, 126.027, 124.171, 121.998, 125.006, 133.113, 138.233, 128.569, 137.198, 133.101, 124.004, 120.03, 121.009, 123.007, 121.018, 125.011, 125.986, 116.979, 127.003, 125.99, 140.958, 180.521, 82.201, 141.112, 135.191, 78.975, 117.037, 127.951, 123.017, 178.138, 97.798, 101.833, 114.92, 157.076, 145.896, 143.932, 133.956, 94.836, 142.181, 165.743, 189.938, 173.959, 109.995, 96.003, 141.061, 95.972, 84.975, 109.978, 109.941, 173.949, 167.085, 124.847, 155.995, 160.046, 100.984, 98.603, 127.993, 147.201, 122.839, 124.866, 120.012, 120.006, 120.054, 120.0, 117.994, 74.526, 115.006, 119.635, 121.987, 115.99, 102.025, 119.982, 154.971, 104.997, 107.999, 107.983, 109.019, 104.992, 110.014, 120.005, 132.004, 116.998, 123.01, 150.036, 123.004, 119.999, 120.031, 120.002, 131.998, 145.006, 86.993, 140.096, 125.014, 125.024, 105.025, 110.026, 115.007, 89.018, 178.134, 82.221, 168.022, 134.91, 119.985, 135.999, 79.875, 120.01, 85.934, 97.978, 86.003, 119.971, 128.014, 111.87, 130.084, 115.954, 114.01, 62.866, 119.992, 117.001, 117.022, 115.121, 120.006, 134.994, 125.04, 124.998, 126.995, 104.969, 121.015, 120.002, 125.001, 120.985, 121.984, 105.0, 97.986, 117.882, 122.995, 100.015, 97.001, 90.019, 120.006, 120.019, 76.172, 98.41, 148.07, 97.552, 118.003, 114.999, 120.007, 123.999, 120.01, 115.004, 117.007, 124.002, 122.001, 102.008, 120.01, 124.01, 146.496, 115.111, 93.916, 119.993, 121.002, 120.036, 127.018, 113.992, 94.983, 79.932, 81.111, 161.177, 123.504, 183.978, 83.999, 171.921, 118.055, 128.007, 140.115, 98.257, 125.017, 109.138, 92.38, 98.991, 111.953, 90.233, 136.846, 121.694, 99.991, 120.009, 117.994, 119.959, 116.986, 118.004, 124.002, 118.003, 117.011, 117.981, 100.009, 119.973, 125.998, 116.042, 121.866, 122.032, 119.962, 97.531, 71.638, 68.494, 125.126, 122.999, 120.007, 120.971, 122.982, 122.988, 120.997, 120.585, 120.002, 118.414, 120.035, 140.075, 105.036, 128.981, 105.013, 128.053, 128.015, 120.012, 110.007, 125.557, 101.492, 126.97, 103.993, 120.795, 120.008, 106.98, 127.007, 127.032, 124.712, 101.979, 122.013, 127.021, 119.992, 123.015, 119.998, 128.005, 123.983, 123.979, 121.999, 104.96, 114.584, 136.983, 91.542, 75.756, 143.292, 94.552, 139.752, 79.19, 154.375, 102.669, 123.0, 135.057, 123.982, 128.96, 128.463, 119.986, 114.989, 128.994, 134.606, 130.173, 123.001, 120.002, 117.999, 104.985, 58.492, 117.985, 119.004, 117.997, 124.005, 118.014, 124.856, 120.022, 124.114, 119.974, 112.015, 119.013, 110.013, 120.97, 120.003, 120.969, 89.993, 110.006, 116.995, 126.97, 126.979, 127.018, 109.999, 164.003, 115.962, 104.536, 93.743, 82.449, 125.998, 124.044, 120.578, 123.0, 127.007, 119.977, 120.885, 120.99, 120.056, 178.383, 125.0, 121.999, 129.001, 126.982, 123.989, 122.994, 121.991, 123.009, 126.0, 126.989, 126.999, 114.009, 114.021, 120.016, 112.001, 112.033, 119.875, 111.999, 111.986, 118.036, 116.992, 127.734, 89.951, 72.878, 90.015, 120.016, 116.976, 118.014, 133.118, 121.748, 134.974], 'tempo_mean': 119.34637991266375, 'tempo_median': 119.997, 'tempo_min': 57.0, 'tempo_max': 204.429, 'duration_ms': [127920, 224133, 171653, 233280, 371533, 201947, 160720, 238373, 250000, 177093, 190185, 234653, 214255, 171728, 221874, 193059, 277506, 271088, 189796, 367391, 235000, 222335, 190448, 314487, 230630, 261742, 224237, 343359, 248840, 329800, 266600, 241547, 193120, 197973, 248213, 205920, 167853, 235773, 178613, 232680, 383893, 219760, 221000, 310120, 240640, 187133, 265787, 233107, 155293, 204290, 280070, 185728, 210982, 228467, 142174, 222719, 273427, 156000, 201040, 204160, 242267, 234960, 209826, 345304, 327387, 334225, 297316, 250826, 200827, 222000, 218733, 321533, 237027, 282560, 309667, 252360, 286333, 236640, 305703, 299970, 289307, 320654, 230693, 281407, 243509, 253831, 271673, 262540, 248920, 196570, 210559, 201042, 259664, 186093, 196489, 247934, 228027, 238479, 227907, 225155, 234487, 164640, 167173, 237920, 160136, 109353, 145603, 258293, 254840, 142893, 536471, 349693, 462267, 390013, 201720, 335480, 352004, 473333, 418773, 347347, 270507, 465333, 217040, 213640, 235000, 289607, 252200, 234733, 250333, 302573, 189293, 183533, 143005, 234160, 170840, 290736, 190613, 242296, 173893, 383800, 218160, 316188, 233857, 246952, 205614, 206600, 253435, 263923, 177796, 264120, 196627, 168720, 153333, 200253, 203000, 158013, 211767, 193573, 194400, 133867, 210613, 268133, 212333, 199746, 208669, 209067, 268440, 178720, 263227, 229747, 238667, 217053, 225600, 252107, 211693, 208707, 159013, 224680, 255720, 215093, 155960, 273864, 165983, 351876, 247055, 220836, 300996, 183222, 247839, 195643, 213622, 221194, 220617, 178313, 201870, 257472, 185066, 180062, 185400, 223200, 345560, 376973, 361520, 199087, 471996, 283389, 268836, 255613, 229337, 249840, 194023, 276785, 280878, 261881, 269815, 357357, 212044, 149811, 253848, 342604, 556924, 288080, 209453, 368373, 326387, 475058, 283425, 265747, 250533, 222270, 200195, 209400, 160160, 225780, 304653, 219693, 188987, 213747, 214240, 350742, 339190, 218319, 238146, 195353, 341062, 268987, 266041, 216893, 242829, 72043, 155720, 262231, 252231, 262600, 206975, 135707, 238480, 136000, 115000, 171789, 195446, 193669, 121171, 188782, 161800, 216592, 217120, 241021, 249706, 240114, 213989, 187837, 221279, 212815, 224728, 208910, 241025, 249375, 205368, 186149, 219946, 218358, 339258, 192533, 195862, 247862, 201182, 277726, 204024, 208072, 218307, 258044, 159013, 213760, 298440, 219840, 225154, 251773, 190999, 209025, 190750, 184990, 193105, 253999, 291433, 292971, 365033, 208931, 193570, 330579, 230213, 238080, 234853, 329467, 257747, 276253, 228347, 239000, 233627, 279880, 341000, 178907, 217565, 321087, 313468, 286145, 286170, 173380, 329175, 62215, 206968, 213242, 213840, 207445, 201446, 156993, 287852, 134929, 202963, 209264, 318147, 280074, 248382, 250633, 267887, 327787, 255248, 335867, 144938, 257865, 263146, 429700, 774294, 483960, 364360, 481573, 392253, 604828, 268227, 405067, 502002, 356493, 182788, 347466, 337681, 370640, 406707, 427295, 579520, 521815, 390253, 225387, 219405, 190329, 213040, 199312, 236960, 206270, 219306, 210622, 192042, 208954, 182500, 205605, 245196, 353333, 254755, 245053, 199437, 316627, 197673, 203103, 226043, 215191, 194275, 237165, 207301, 219988, 225500, 221675, 228693, 416827, 428369, 516520, 315720, 240591, 340773, 138707, 171000, 296200, 323027, 343232, 267333, 600613, 511308, 253976, 354184, 301093, 390234, 513125, 249957, 219603, 207192, 348093, 266455, 296045, 319266, 240318, 215804, 265800, 249549, 338608, 528147, 395229, 452443, 357773, 277607, 517416, 349935, 201494, 184987, 165391, 254042, 192006, 168677, 203537, 232328, 229160, 200170, 198120, 67520, 120780, 158000, 219893, 143880, 156240, 194947, 129539, 73617, 94903, 237231, 274729, 201446, 196365, 218911, 155116, 340199, 196923, 209231, 205678, 577345, 129883, 236421, 404041, 340086, 369558, 323493, 246213, 371434, 348307, 283389, 277220, 264046, 182764, 196559, 222092, 260159, 245905, 330848, 278205, 127760, 143174, 166568, 179060, 629447, 504268, 490991, 498467, 448184, 357787, 560060, 397612, 504026, 184227, 351207, 410471, 96888, 452062, 192787, 350374, 424671, 386631, 387200, 203637, 333693, 423280, 311907, 258093, 242467, 258173, 234360, 289467, 333893, 263413, 207947, 202866, 262023, 303893, 337240, 223030, 298929, 256492, 183061, 250133, 412220, 425417, 511308, 398000, 373917, 523285, 405500, 517518, 538494, 527484, 322773, 335987, 205693, 205187, 304440, 211480, 270440, 324240, 192547, 376387, 413315, 459964, 477738, 260048, 592086, 368855, 369978, 324669, 385962, 347462, 249933, 203867, 208493, 204360, 265280, 214373, 218600, 238480, 293280, 223000, 323362, 502162, 151739, 542325, 320222, 356078, 418379, 162133, 425911, 58874, 413693, 396876, 429409, 554805, 478397, 438979, 253893, 250394, 382984, 267721, 154907, 225533, 153960, 166187, 329387, 367013, 164600, 264933, 309227, 155080, 415730, 515754, 381290, 292693, 451706, 547255, 404870, 465116, 428498, 314027, 647679, 485289, 363971, 394021, 326230, 391999, 342859, 480000, 418079, 423083, 163200, 170120, 178580, 341771, 361920, 429739, 336866, 380308, 369280, 335571, 369627, 364600, 424053, 502162, 338375, 494554, 295772, 272933, 150000, 135732, 303486, 179705, 269047, 263387, 254938, 333662, 326000, 277960, 233694, 478017, 296000, 271876, 257615, 480258, 552694, 498091, 492373, 454927, 427320, 427513, 409977, 373304, 355116, 358886, 244000, 413196, 476786, 341786, 538996, 274454, 303167, 439067, 492884, 277438, 142756, 261178, 161000, 125574, 182044, 233082, 194305, 196812, 232551], 'duration_ms_mean': 277233.86026200873, 'duration_ms_median': 249706, 'duration_ms_min': 58874, 'duration_ms_max': 774294, 'time_signature': [4, 4, 4, 4, 4, 4, 4, 4, 4, 4, 4, 4, 4, 4, 4, 4, 4, 4, 4, 4, 4, 4, 4, 4, 4, 4, 4, 4, 4, 4, 4, 4, 4, 4, 4, 3, 4, 4, 4, 4, 4, 4, 4, 4, 4, 4, 4, 4, 4, 4, 4, 4, 4, 4, 4, 4, 4, 4, 4, 4, 4, 4, 4, 4, 4, 4, 4, 4, 4, 4, 4, 4, 4, 4, 4, 4, 4, 4, 4, 4, 4, 4, 4, 4, 4, 4, 4, 4, 4, 4, 4, 4, 4, 4, 4, 4, 4, 4, 4, 4, 4, 4, 4, 4, 4, 4, 4, 4, 4, 4, 4, 4, 4, 4, 4, 3, 4, 4, 4, 4, 4, 4, 4, 4, 4, 4, 4, 4, 4, 4, 4, 4, 4, 4, 4, 4, 4, 4, 4, 4, 4, 4, 4, 4, 4, 5, 4, 4, 4, 4, 4, 4, 4, 4, 4, 4, 4, 4, 4, 4, 4, 4, 4, 4, 4, 4, 4, 4, 4, 4, 4, 4, 4, 4, 4, 4, 4, 4, 4, 4, 4, 4, 4, 4, 4, 4, 4, 4, 4, 4, 4, 4, 5, 5, 4, 4, 5, 4, 4, 4, 4, 4, 4, 4, 4, 4, 4, 4, 4, 4, 4, 4, 4, 4, 4, 3, 4, 4, 4, 4, 4, 4, 4, 4, 4, 4, 4, 4, 4, 4, 4, 4, 4, 4, 4, 4, 4, 4, 4, 4, 4, 4, 4, 4, 4, 4, 4, 4, 4, 1, 4, 4, 4, 4, 4, 5, 4, 4, 4, 4, 5, 4, 4, 4, 4, 4, 3, 4, 4, 4, 4, 4, 4, 4, 4, 4, 4, 4, 4, 4, 4, 4, 4, 4, 4, 4, 4, 4, 4, 4, 4, 4, 4, 4, 4, 4, 4, 4, 4, 4, 4, 4, 4, 4, 4, 4, 4, 4, 4, 4, 4, 4, 4, 4, 4, 4, 4, 4, 4, 4, 4, 4, 4, 4, 4, 4, 4, 4, 4, 4, 4, 4, 4, 4, 4, 4, 4, 4, 4, 4, 4, 4, 4, 4, 4, 4, 4, 4, 4, 4, 4, 4, 3, 4, 4, 4, 4, 3, 4, 4, 4, 4, 4, 5, 4, 4, 4, 4, 4, 4, 4, 4, 4, 4, 4, 4, 4, 4, 4, 4, 4, 4, 4, 4, 4, 4, 4, 4, 4, 4, 4, 4, 4, 4, 4, 4, 4, 4, 4, 4, 4, 4, 4, 4, 4, 3, 4, 4, 5, 4, 4, 4, 4, 4, 4, 3, 4, 4, 4, 4, 4, 4, 5, 4, 4, 4, 4, 4, 4, 4, 4, 4, 4, 4, 4, 4, 3, 4, 4, 4, 4, 4, 4, 4, 4, 4, 4, 4, 4, 4, 4, 4, 4, 5, 4, 3, 3, 4, 4, 4, 4, 4, 4, 4, 4, 3, 4, 4, 4, 4, 4, 3, 4, 4, 4, 4, 4, 4, 4, 4, 4, 4, 4, 4, 4, 4, 4, 4, 4, 4, 4, 4, 4, 3, 4, 4, 4, 4, 4, 4, 4, 4, 4, 4, 4, 4, 5, 4, 3, 1, 4, 4, 4, 4, 4, 4, 4, 4, 4, 4, 4, 4, 4, 4, 4, 3, 4, 4, 4, 4, 4, 4, 4, 5, 4, 4, 4, 4, 4, 4, 4, 4, 4, 4, 4, 4, 4, 4, 3, 4, 4, 3, 4, 4, 4, 4, 4, 4, 4, 4, 4, 3, 4, 4, 4, 4, 4, 4, 4, 4, 4, 4, 4, 4, 4, 4, 4, 4, 4, 4, 4, 4, 4, 4, 4, 4, 4, 4, 4, 4, 4, 4, 4, 4, 4, 3, 3, 4, 4, 3, 3, 4, 3, 4, 4, 4, 4, 4, 4, 4, 4, 4, 4, 4, 4, 4, 4, 4, 4, 4, 4, 5, 4, 5, 4, 4, 4, 4, 4, 4, 4, 4, 4, 4, 4, 4, 4, 4, 4, 4, 4, 4, 4, 4, 4, 3, 4, 3, 4, 4, 4, 4, 4, 4, 4, 4, 4, 4, 4, 4, 4, 4, 4, 4, 4, 4, 3, 4, 4, 4, 4, 4, 4, 4, 4, 4, 4, 4, 4, 4, 4, 4, 4, 4, 4, 4, 4], 'time_signature_min': 1, 'time_signature_max': 5, 'time_signature_mode': [4]};12:00:00;http://www.songkick.com/festivals/2072544-all-points-east/id/31697529-all-points-east-2018?utm_source=48622&utm_medium=partner;0.648;0.63;0.0593;0.113;0.431;277233.8603;[4];;;;;;;;;;;;
, 0.479, 0.671, 0.573, 0.391, 0.916, 0.565, 0.846, 0.802, 0.701, 0.829, 0.425, 0.578, 0.487, 0.667, 0.664, 0.669, 0.139, 0.364, 0.513, 0.797, 0.427, 0.459, 0.416, 0.304, 0.186, 0.503, 0.818, 0.0906, 0.426, 0.236, 0.35, 0.211, 0.148, 0.401, 0.88, 0.855, 0.638, 0.87, 0.366, 0.47, 0.578, 0.726, 0.785, 0.781, 0.404, 0.356, 0.706, 0.757, 0.488, 0.908, 0.344, 0.532, 0.424, 0.564, 0.377, 0.5, 0.582, 0.462, 0.154, 0.239, 0.406, 0.0399, 0.334, 0.544, 0.61, 0.103, 0.198, 0.321, 0.686, 0.243, 0.712, 0.0377, 0.522, 0.0295, 0.384, 0.344, 0.43, 0.293, 0.507, 0.376, 0.135, 0.513, 0.419, 0.19, 0.482, 0.827, 0.585, 0.531, 0.569, 0.301, 0.656, 0.5, 0.599, 0.607, 0.582, 0.227, 0.449, 0.114, 0.436, 0.805, 0.898, 0.634, 0.103, 0.234, 0.645, 0.646, 0.746, 0.817, 0.554, 0.735, 0.659, 0.602, 0.561, 0.707, 0.57, 0.583, 0.593, 0.788, 0.735, 0.728, 0.795, 0.819, 0.801, 0.466, 0.156, 0.0436, 0.0542, 0.384, 0.347, 0.31, 0.417, 0.723, 0.551, 0.548, 0.0378, 0.0845, 0.0785, 0.036, 0.0775, 0.543, 0.366, 0.17, 0.137, 0.0485, 0.826, 0.827, 0.827, 0.628, 0.755, 0.892, 0.614, 0.78, 0.636, 0.585, 0.118, 0.629, 0.749, 0.738, 0.268, 0.413, 0.0303, 0.315, 0.624, 0.0745, 0.615, 0.349, 0.821, 0.628, 0.718, 0.68, 0.578, 0.504, 0.356, 0.372, 0.707, 0.324, 0.308, 0.459, 0.201, 0.594, 0.525, 0.24, 0.382, 0.686, 0.459, 0.418, 0.906, 0.79, 0.926, 0.266, 0.395, 0.362, 0.552, 0.399, 0.237, 0.275, 0.213, 0.198, 0.554, 0.884, 0.038, 0.521, 0.0881, 0.121, 0.651, 0.546, 0.725, 0.449, 0.743, 0.556, 0.698, 0.235, 0.661, 0.519, 0.716, 0.482, 0.536, 0.414, 0.268, 0.463, 0.189, 0.602, 0.336, 0.432, 0.202, 0.289, 0.196, 0.0391, 0.24, 0.761, 0.216, 0.545, 0.58, 0.268, 0.866, 0.573, 0.29, 0.416, 0.334, 0.835, 0.655, 0.399, 0.435, 0.642, 0.56, 0.274, 0.56, 0.473, 0.75, 0.244, 0.342, 0.44, 0.387, 0.245, 0.667, 0.524, 0.463, 0.576, 0.352, 0.93, 0.478, 0.962, 0.427, 0.355, 0.0683, 0.192, 0.341, 0.364, 0.217, 0.337, 0.19, 0.218, 0.842, 0.121], 'valence_mean': 0.4793085910652921, 'valence_median': 0.482, 'valence_min': 0.0295, 'valence_max': 0.962, 'tempo': [126.342, 125.99, 123.293, 127.956, 127.029, 127.011, 125.995, 127.186, 126.994, 126.026, 126.113, 125.018, 125.014, 129.963, 129.963, 128.003, 127.533, 122.044, 127.967, 125.015, 105.399, 133.856, 136.213, 109.956, 140.078, 147.922, 134.022, 140.12, 84.389, 137.766, 122.029, 123.985, 121.961, 120.023, 130.049, 119.99, 123.033, 125.014, 124.968, 120.049, 126.019, 123.006, 126.0, 124.994, 126.001, 126.011, 125.306, 126.019, 126.017, 129.981, 128.0, 123.999, 122.012, 124.988, 123.986, 125.01, 127.983, 124.989, 124.988, 125.0, 123.987, 124.997, 125.013, 124.026, 124.995, 127.0, 121.972, 124.99, 126.023, 124.037, 159.848, 171.959, 174.046, 173.988, 175.954, 174.068, 174.043, 174.058, 174.011, 174.027, 173.988, 125.002, 124.981, 124.019, 125.005, 124.033, 127.979, 124.033, 124.984, 127.03, 127.997, 139.096, 140.846, 135.082, 137.644, 139.746, 139.886, 139.905, 172.283, 140.58, 139.22, 103.114, 103.45, 99.638, 98.018, 104.995, 100.085, 145.912, 126.983, 140.049, 110.129, 126.041, 123.003, 124.996, 121.996, 124.998, 130.989, 125.023, 124.008, 122.01, 125.99, 123.488, 123.473, 124.966, 123.469, 112.104, 124.968, 127.889, 124.006, 124.0, 123.981, 94.332, 94.003, 98.771, 136.972, 66.374, 121.998, 135.721, 108.092, 95.628, 104.985, 128.495, 122.99, 127.006, 120.027, 127.994, 122.999, 126.005, 120.998, 124.003, 120.002, 120.999, 119.991, 122.001, 124.002, 124.0, 126.987, 121.05, 125.019, 125.003, 123.99, 130.462, 103.45, 133.18, 105.34, 133.149, 129.013, 73.709, 100.056, 95.363, 101.814, 124.988, 129.985, 126.003, 130.006, 126.995, 133.319, 129.014, 127.02, 130.002, 127.011, 125.99, 128.009, 126.965, 126.008, 124.986, 125.017, 123.991, 124.996, 124.99, 123.995, 123.996, 124.003, 124.004, 123.995, 124.0, 217.282, 248.019, 123.99, 123.999, 124.004, 126.044, 122.022, 127.98, 126.002, 125.04, 124.987, 124.999, 124.007, 106.04, 124.984, 125.024, 123.989, 126.002, 124.019, 123.999, 127.99, 126.015, 125.998, 124.004, 128.009, 111.593, 109.92, 118.344, 110.904, 110.208, 113.097, 110.803, 145.032, 112.962, 99.878, 120.987, 125.093, 125.011, 125.989, 125.022, 125.004, 124.024, 120.002, 127.981, 120.97, 137.837, 85.011, 125.921, 140.23, 139.995, 131.414, 145.169, 140.991, 140.135, 77.002, 124.941, 94.103, 99.463, 130.065, 109.927, 74.504, 143.005, 119.799, 98.006, 90.334, 133.017, 123.015, 124.008, 123.003, 123.009, 122.986, 124.004, 123.007, 123.991, 118.009, 123.015, 123.011, 123.011, 123.988, 123.005, 121.995, 123.032, 122.987, 123.029, 123.985, 87.97, 87.955, 175.043, 177.92, 131.658, 180.073, 140.094, 175.424, 87.494, 176.042], 'tempo_mean': 126.18867010309279, 'tempo_median': 124.995, 'tempo_min': 66.374, 'tempo_max': 248.019, 'duration_ms': [171360, 157432, 543453, 379500, 165076, 313388, 434667, 186624, 431107, 450912, 177573, 195960, 157920, 484533, 200787, 323716, 182267, 181967, 399547, 211320, 174495, 145698, 187585, 210001, 240000, 206351, 223433, 223500, 158000, 181520, 196489, 382042, 188707, 263888, 235307, 148389, 243160, 157920, 206640, 237070, 245714, 573750, 399996, 402000, 437573, 383882, 4664000, 334762, 423188, 561270, 410125, 436884, 395120, 401728, 187546, 253452, 341298, 313130, 540633, 232500, 207090, 346800, 452400, 406692, 390000, 304107, 409343, 201600, 228571, 356129, 192520, 255584, 179650, 278483, 321124, 274483, 247040, 249655, 340689, 225254, 278621, 325302, 392410, 453674, 646000, 617268, 491250, 322800, 514122, 485838, 496000, 196480, 211339, 217472, 240363, 224571, 207917, 267829, 227243, 265262, 197499, 191226, 204832, 219165, 229120, 205381, 227084, 190685, 215173, 208427, 218182, 200504, 569107, 427003, 206066, 304240, 350601, 359739, 357240, 409243, 465525, 236293, 249533, 208000, 296560, 378723, 156069, 214045, 345246, 346230, 202963, 215573, 191556, 209394, 199943, 232800, 236400, 267085, 233000, 187166, 165327, 519222, 428293, 416113, 510000, 481120, 356341, 369572, 366547, 3532400, 640289, 421307, 540000, 468514, 377739, 465225, 432756, 473192, 499490, 491929, 650323, 213080, 204832, 184800, 235530, 189597, 176289, 223086, 175200, 227677, 204950, 383972, 529122, 524811, 241988, 309200, 274126, 249329, 406948, 354742, 378425, 200005, 363867, 366250, 306067, 422400, 357172, 332903, 372429, 342997, 363936, 405868, 420000, 347419, 372370, 4556781, 372581, 373081, 373477, 358065, 357575, 188347, 203260, 323800, 203333, 147973, 290987, 255373, 342581, 226415, 261546, 368640, 464881, 528571, 453674, 558374, 452241, 462442, 510595, 536095, 489040, 300640, 225720, 263773, 179613, 242587, 228427, 233373, 331507, 234213, 217013, 381654, 325531, 372220, 367619, 408560, 293070, 343281, 452654, 399003, 404628, 259893, 167811, 141296, 235781, 240274, 263279, 241676, 177267, 210597, 289045, 200051, 184421, 230816, 123692, 186545, 198400, 214825, 240000, 207551, 232800, 394200, 393067, 426606, 456783, 327902, 454500, 553479, 441360, 448197, 273925, 222422, 235134, 362114, 249493, 402199, 405444, 333044, 417648, 395237, 97718, 187373, 219878, 288000, 197509, 188673, 198667, 204000, 288253, 257856, 187995], 'duration_ms_mean': 351532.8075601375, 'duration_ms_median': 288000, 'duration_ms_min': 97718, 'duration_ms_max': 4664000, 'time_signature': [4, 4, 4, 4, 4, 4, 4, 4, 4, 4, 4, 4, 4, 4, 4, 4, 4, 4, 4, 4, 4, 5, 4, 4, 4, 4, 4, 4, 3, 4, 4, 4, 4, 4, 4, 4, 4, 4, 4, 4, 4, 4, 4, 4, 4, 4, 4, 4, 4, 4, 4, 4, 4, 4, 4, 4, 4, 4, 4, 4, 4, 4, 4, 4, 4, 4, 4, 4, 4, 4, 4, 4, 4, 4, 4, 4, 4, 4, 4, 4, 4, 4, 4, 4, 4, 4, 4, 4, 4, 4, 4, 4, 4, 4, 4, 4, 4, 4, 5, 4, 4, 4, 4, 4, 4, 4, 4, 4, 4, 4, 4, 4, 4, 4, 4, 4, 4, 4, 4, 4, 4, 4, 4, 4, 4, 4, 4, 4, 4, 4, 4, 4, 4, 4, 5, 5, 4, 5, 4, 4, 4, 4, 4, 4, 4, 4, 4, 4, 4, 4, 4, 4, 4, 4, 4, 4, 4, 4, 4, 4, 1, 5, 4, 5, 4, 5, 5, 3, 4, 4, 4, 4, 4, 4, 4, 4, 4, 4, 4, 4, 4, 4, 4, 4, 4, 4, 4, 4, 4, 4, 4, 4, 4, 4, 4, 4, 1, 4, 4, 4, 4, 4, 4, 4, 4, 4, 4, 4, 4, 4, 4, 4, 4, 4, 4, 4, 4, 4, 4, 4, 4, 4, 4, 4, 4, 4, 4, 4, 4, 4, 4, 4, 4, 4, 4, 4, 4, 4, 4, 4, 4, 4, 4, 4, 4, 4, 4, 3, 4, 4, 4, 4, 4, 4, 4, 4, 4, 4, 4, 4, 1, 4, 3, 4, 4, 4, 4, 4, 4, 4, 4, 4, 4, 4, 4, 4, 4, 4, 4, 4, 4, 4, 4, 4, 4, 4, 4, 4, 4, 4, 4], 'time_signature_min': 1, 'time_signature_max': 5, 'time_signature_mode': [4]};;http://www.songkick.com/festivals/601484-we-are-fstvl/id/31740439-we-are-fstvl-2018?utm_source=48622&utm_medium=partner;0.754;0.763;0.291;0.111;0.482;351532.8076;[4];;;;;;;;;;;;
1585;5aff786c84d273000431fe64;25/5/2018 0:00;DJ Yoda and Jungle Brothers at Electric Brixton (May 25, 2018);0.012809;Friday;51.4598359;-0.1170324;34.5;50904;0.8245;0.594;[10];-8.039;[1];0.2045;0.141;0.00014;0.117;0.6665;230972.75;[4]
1594;5aff789284d273000431fe7c;25/5/2018 0:00;British Steel II 2018;0.001867;Friday;51.538488;-0.142103;3.5;24093;0.436;0.9215;[9];-6.6395;[1];0.07405;0.001185;0.003615;0.2055;0.2925;307783.0417;[4]
1617;5aff78d784d273000431feb4;25/5/2018 0:00;Gala 2018;0.012951;Friday;51.5073509;-0.1277583;55;33644;0.787;0.718;[10];-7.6535;[0];0.04;0.05425;0.6785;0.07875;0.5835;346447.9;[4]
1633;5aff791384d273000431fedc;25/5/2018 0:00;Detroit Swindle at Phonox (May 25, 2018);0.004583;Friday;51.464399;-0.1146492;46;29971;0.823;0.731;[2];-9.5865;[0];0.0918;0.03155;0.1715;0.1985;0.3985;385933.7;[4]
1642;5aff792c84d273000431feef;25/5/2018 0:00;Cookers at St James the Great Church (May 25, 2018);0.002719;Friday;51.5570517;-0.0558388;2;206;0.4155;0.466;[5];-10.023;[1];0.04115;0.6305;0.6215;0.1175;0.394;521098.1;[4]
1661;5aff796b84d273000431ff17;25/5/2018 0:00;Simian Mobile Disco at Pickle Factory (May 25, 2018);0.045667;Friday;51.5332757;-0.0588753;49;98528;0.663;0.703;[7];-8.898;[0];0.0433;0.00454;0.655;0.1125;0.617;293785.3;[4]
1678;5aff79a184d273000431ff46;26/5/2018 0:00;Steel Yard 2018;0.232816;Saturday;51.5073509;-0.1277583;60;4057263;0.6085;0.7435;[0];-6.829;[1];0.0468;0.02425;0.08395;0.1085;0.204;262653.675;[4]
1685;5aff79c384d273000431ff5c;26/5/2018 0:00;Walthamstow Folk Festival 2018;0.000735;Saturday;51.5859219;-0.0198687;9;4433;0.487;0.3315;[9];-11.019;[1];0.04175;0.832;2.95E-06;0.147;0.386;238329.2333;[4]
1693;5aff79d384d273000431ff6b;26/5/2018 0:00;Rahaan at The Jazz Cafe (May 26, 2018);7.50E-05;Saturday;51.5387092;-0.1430815;18;476;0.882;0.558;[0];-10.363;[0];0.12;0.0276;0.000982;0.102;0.868;398361.3333;[4]
1700;5aff7a0f84d273000431ff96;26/5/2018 0:00;Actress and London Contemporary Orchestra with Duval Timothy, Toxe, and 1 more… at Barbican Centre (May 26, 2018);0.010901;Saturday;51.5198644;-0.0916989;23;30759;0.501;0.317;[5];-13.9205;[1];0.0495;0.3445;0.7755;0.1025;0.196;239859.8125;[4]
1701;5aff7a1e84d273000431ff9f;26/5/2018 0:00;Chris Lorenzo with Pax, Taiki Nulight, Monki, and 4 more… at Ministry of Sound (May 26, 2018);0.00458;Saturday;51.497496;-0.099585;35.5;41639;0.784;0.793;[11];-6.599;[1];0.0711;0.0326;0.288;0.111;0.579;297735.0704;[4]
1713;5aff7a3d84d273000431ffb9;26/5/2018 0:00;Steel Yard London, Victoria Park 2018;0.002715;Saturday;51.5073509;-0.1277583;46;12143;0.7585;0.6825;[0];-8.7925;[0];0.0434;0.02455;0.668;0.109;0.3595;304290.3;[4]
1714;5aff7a4784d273000431ffc0;26/5/2018 0:00;Ellen Allien, Bjarki, Tijana T, Kangding Ray, and 2 more… at fabric (May 26, 2018);0.010093;Saturday;51.5195531;-0.1024779;21.5;78063;0.709;0.633;[1];-12.329;[1];0.05095;0.02365;0.876;0.108;0.1795;350335.7708;[4]
1717;5aff7a4c84d273000431ffc5;26/5/2018 0:00;Tortured Soul at CLF Art Cafe, The Bussey Building (May 26, 2018);0.00281;Saturday;51.4698563;-0.0679964;39;10996;0.8175;0.6345;[6];-7.999;[0];0.03995;0.00695;0.0001965;0.0821;0.903;348718.6;[4]
1745;5aff7a9f84d2730004320004;26/5/2018 0:00;Sneakbo, Lisa Mercedez, Dre Skull, Jubilee, and 1 more… at Village Underground (May 26, 2018);0.004906;Saturday;51.5237877;-0.0780335;41;38056;0.632;0.762;[11];-5.549;[1];0.124;0.0937;0;0.1855;0.488;207857.82;[4]
1751;5aff7ab684d2730004320016;26/5/2018 0:00;Shaun Ashby with Dj Fiddla and Angela Rose at Bar 512 (May 26, 2018);2.00E-06;Saturday;51.5439981;-0.0758803;0;15;0.768;0.641;[7];-11.329;[0];0.081;0.00457;0.87;0.106;0.695;424326.5455;[4]
1764;5b00c8c263800d0004c40d19;27/5/2018 0:00;Redtenbacher's Funkestra at Ziggy's World Jazz Club (May 27, 2018);0.000147;Sunday;51.6503243;-0.0810461;23;2207;0.7335;0.8255;[0];-5.1035;[1];0.03945;0.0213;0.688;0.115;0.827;199143.6;[4]
1798;5b00c96e63800d0004c40d83;27/5/2018 0:00;Lindstrøm at The Jazz Cafe (May 27, 2018);0.012801;Sunday;51.5387092;-0.1430815;48;54567;0.7815;0.726;[0];-7.883;[0];0.0466;0.01755;0.893;0.1078;0.8325;410533.3;[4]
1806;5b00c98863800d0004c40d97;27/5/2018 0:00;Marcus Marr at The Old Queen's Head (May 27, 2018);0.008641;Sunday;51.5372495;-0.1004071;51;25514;0.7045;0.8165;[0];-8.182;[1];0.05565;0.07625;0.6725;0.08305;0.5375;385350.4;[4]
1807;5b00c99b63800d0004c40da1;27/5/2018 0:00;Heartless Crew, DJ Luck & MC Neat, Wookie, Martin Larner, and 8 more… at fabric (May 27, 2018);0.005667;Sunday;51.5195531;-0.1024779;27;45629;0.606;0.658;[9];-8.799;[1];0.0514;0.0646;0.00419;0.118;0.5;321513.12;[4]
1825;5b00c9d163800d0004c40dc6;27/5/2018 0:00;Spencer Parker at Unknown venue (May 27, 2018);0.000891;Sunday;51.5073509;-0.1277583;16;1414;0.7835;0.619;[1];-10.523;[1];0.0559;0.002585;0.9165;0.10205;0.3465;492038.3;[4]
1892;5b036c07e926df00044b2fc0;29/5/2018 0:00;DJ Charlsey with DJ F at Ministry of Sound (May 29, 2018);7.10E-05;Tuesday;51.497496;-0.099585;19;7;0.86;0.566;[1];-9.376;[1];0.124;0.092;1.18E-05;0.0996;0.541;200870;[4]
