id;date;datetime_source;id;name;popularity;type;date_name;lat;lng;popularity_median;followers_sum;danceability_median;energy_median;key_mode;loudness_median;mode_mode;speechiness_median;acousticness_median;instrumentalness_median;liveness_median;valence_median;duration_ms_mean;time_signature_mode
14;14/5/2018 0:00;2018-05-14T19:30:00+0100;33042619;Now, Now with So Below and JOAN at The Dome, Tufnell Park (May 14, 2018);0.008894;Concert;Monday;51.5575896;-0.1387684;72;1866051;0.6505;0.5585;[9];-8.083;[0];0.04485;0.264;2.67E-05;0.116;0.409;213547.2667;[4]
50;15/5/2018 0:00;2018-05-15T20:00:00+0100;32675884;Mansionair at Moth Club (May 15, 2018);0.011056;Concert;Tuesday;51.545251;-0.0546504;64;51177;0.5935;0.5925;[5];-8.1215;[0];0.0439;0.347;0.05005;0.118;0.383;257054.5;[4]
56;15/5/2018 0:00;;32823504;Bold Tendencies 2018 2018 (CANCELLED) ;0.000326;Festival;Tuesday;51.5073509;-0.1277583;24;1232;0.469;0.4125;[2];-11.4025;[0];0.03805;0.413;0.022613;0.1109;0.2755;345522;[3]
108;16/5/2018 0:00;2018-05-16T19:00:00+0100;32615604;Durand Jones and the Indications at The Waiting Room (May 16, 2018);0.000466;Concert;Wednesday;51.562052;-0.073771;46;13708;0.5585;0.6595;[7];-7.711;[0];0.0543;0.289;0.2289;0.259;0.604;239859.4;[4]
109;16/5/2018 0:00;2018-05-16T00:00:00+0100;32616709;Durand Jones and the Indications at The Waiting Room (May 16, 2018);0.000466;Concert;Wednesday;51.562052;-0.073771;46;13708;0.5585;0.6595;[7];-7.711;[0];0.0543;0.289;0.2289;0.259;0.604;239859.4;[4]
137;16/5/2018 0:00;2018-05-16T12:45:00+0100;33464674;Durand Jones and the Indications at Rough Trade East (May 16, 2018);0.000732;Concert;Wednesday;51.521245;-0.0718398;46;13743;0.5585;0.6595;[7];-7.711;[0];0.0543;0.289;0.2289;0.259;0.604;239859.4;[4]
163;17/5/2018 0:00;2018-05-17T19:00:00+0100;29917924;SOHN with Goss at Roundhouse (May 17, 2018);0.045172;Concert;Thursday;51.5429551;-0.1491962;44;194496;0.6505;0.4425;[9];-7.3345;[0];0.0474;0.3485;0.01298;0.1185;0.2635;221860.875;[4]
232;17/5/2018 0:00;2018-05-17T21:00:00+0100;33793609;Maribou State at Corsica Studios (May 17, 2018);0.012751;Concert;Thursday;51.4935647;-0.0987167;59;67272;0.704;0.5625;[2];-8.1465;[0];0.0412;0.4435;0.838;0.177;0.2735;230482.3;[4]
302;18/5/2018 0:00;;33558579;Detroit Swindle at Phonox (May 18, 2018);0.004583;Concert;Friday;51.464399;-0.1146492;46;29828;0.823;0.731;[2];-9.5865;[0];0.0918;0.03155;0.1715;0.1985;0.3985;385933.7;[4]
479;20/5/2018 0:00;2018-05-20T11:00:00+0100;33656304;Aussie BBQ 2018;0.014524;Festival;Sunday;51.527476;-0.081657;47.5;102042;0.504;0.6265;[2];-7.1435;[1];0.042;0.3635;9.24E-05;0.121;0.4075;197456.2273;[4]
523;21/5/2018 0:00;2018-05-21T19:30:00+0100;33829799;Johnny Yukon at Hoxton Square Bar & Kitchen (May 21, 2018);0.000956;Concert;Monday;51.527476;-0.081657;51;5877;0.76;0.635;[0];-6.133;[0];0.09035;0.28;1.19E-06;0.1155;0.359;192079.9;[4]
529;22/5/2018 0:00;;31963869;Nick Mulvey with TT (Theresa Wayman) at Royal Albert Hall (May 22, 2018);0.020719;Concert;Tuesday;51.500786;-0.1781517;48.5;109096;0.576;0.569;[6];-7.888;[1];0.0327;0.586;0.00723;0.107;0.292;262491;[4]
759;15/4/2018 0:00;2018-04-15T19:30:00+0100;30576499;Sonny Landreth at 229 (April 15, 2018);0.003574;Concert;Sunday;51.523464;-0.144249;42;15963;0.5655;0.7655;[2];-8.2475;[1];0.04935;0.1825;0.00117365;0.309;0.796;280472.1;[4]
782;15/4/2018 0:00;2018-04-15T19:00:00+0100;33012169;Ramriddlz at The Garage (April 15, 2018);0.002706;Concert;Sunday;51.5466583;-0.1040639;51;47615;0.586;0.638;[0];-8.2635;[0];0.0723;0.2005;1.43E-06;0.0974;0.449;219372.9;[4]
816;16/4/2018 0:00;2018-04-16T19:30:00+0100;32409309;Porches with Lauren Auder and ALASKALASKA at Village Underground (April 16, 2018);0.010143;Concert;Monday;51.5237877;-0.0780335;38;51395;0.5265;0.528;[2];-8.5885;[0];0.0374;0.172;0.00657;0.1145;0.308;235715.9091;[4]
855;17/4/2018 0:00;2018-04-17T19:30:00+0100;32793494;Club Kuru with Ski Saigon at The Lexington (April 17, 2018);0.001006;Concert;Tuesday;51.5316567;-0.1114451;19.5;5805;0.543;0.691;[9];-6.849;[1];0.0329;0.204;0.534;0.182;0.532;214344.2;[4]
988;19/4/2018 0:00;2018-04-19T19:30:00+0100;33101819;Joey DeFrancesco and Van Morrison at Subterania (April 19, 2018);0.190429;Concert;Thursday;51.5214803;-0.2040499;61.5;708731;0.5405;0.478;[5];-10.3225;[1];0.0397;0.4605;3.71E-05;0.1535;0.521;280410.7;[4]
1059;21/4/2018 0:00;;32967549;Henderson at The Slaughtered Lamb (April 21, 2018);4.80E-05;Concert;Saturday;51.5233496;-0.1011681;65;531654;0.494;0.3715;[0];-8.165;[1];0.04055;0.798;0;0.1135;0.2925;227926.5;[4]
1070;21/4/2018 0:00;;33176589;Dr. Lonnie Smith at Ronnie Scott's (April 21, 2018);0.002004;Concert;Saturday;51.5134988;-0.131519;39;13753;0.6065;0.5015;[5];-11.663;[0];0.0477;0.458;0.855;0.09895;0.7435;412444.5;[4]
1075;21/4/2018 0:00;2018-04-21T19:30:00+0100;33235899;Van Morrison with Joey DeFrancesco at Subterania (April 21, 2018);0.190561;Concert;Saturday;51.5214803;-0.2040499;61.5;708731;0.5405;0.478;[5];-10.3225;[1];0.0397;0.4605;3.71E-05;0.1535;0.521;280410.7;[4]
1103;21/4/2018 0:00;;33563284;Seb Wildblood at Corsica Studios (April 21, 2018);0.000508;Concert;Saturday;51.4935647;-0.0987167;40;5217;0.7575;0.6445;[9];-11.118;[1];0.0453;0.297;0.8815;0.1055;0.519;372691.8;[4]
1126;22/4/2018 0:00;2018-04-22T14:00:00+0100;32592544;Hara with Galaxy Thief and Verse at O2 Academy 2 Islington (April 22, 2018);0.002043;Concert;Sunday;51.5345836;-0.1059202;13;92649;0.59;0.6915;[0];-6.429;[0];0.07815;0.176;0;0.1215;0.4755;224840.5417;[4]
1263;8/5/2018 0:00;2018-05-08T19:30:00+0100;31997939;Ahmad Jamal at Barbican Centre (May 8, 2018) (CANCELLED) ;0.007015;Concert;Tuesday;51.5198644;-0.0916989;48;41444;0.578;0.2875;[0];-16.537;[1];0.04125;0.6485;0.78;0.117;0.3825;305358.7;[4]
1322;9/5/2018 0:00;2018-05-09T19:30:00+0100;32709674;ionnalee and iamamiwhoami with Man Without Country and Tungorna at Heaven (May 9, 2018);0.010685;Concert;Wednesday;51.5079149;-0.1244919;39;110387;0.522;0.705;[11];-8.039;[0];0.0359;0.0161;0.137;0.119;0.199;270812.9459;[4]
1410;23/5/2018 0:00;2018-05-23T19:00:00+0100;31723229;ISLAND with Club Kuru at KOKO (May 23, 2018);0.00266;Concert;Wednesday;51.534617;-0.138338;51.5;675326;0.5735;0.742;[2];-5.6905;[1];0.09755;0.129;0.0003405;0.2155;0.516;186272.7;[4]
1481;24/5/2018 0:00;2018-05-24T19:00:00+0100;32183339;Turnover with Men I Trust at KOKO (May 24, 2018);0.009922;Concert;Thursday;51.534617;-0.138338;56;129591;0.6365;0.621;[5];-8.4835;[1];0.0334;0.323;0.06345;0.108;0.4285;216150.2;[4]
1507;24/5/2018 0:00;2018-05-24T19:30:00+0100;33187154;The Kite String Tangle with Mono Club at Oslo Hackney (May 24, 2018);0.014534;Concert;Thursday;51.5479818;-0.0575201;39.5;52176;0.547;0.69;[0];-7.008;[1];0.0435;0.128;0.000272;0.111;0.282;227610.7895;[4]
1633;25/5/2018 0:00;;33558609;Detroit Swindle at Phonox (May 25, 2018);0.004583;Concert;Friday;51.464399;-0.1146492;46;29971;0.823;0.731;[2];-9.5865;[0];0.0918;0.03155;0.1715;0.1985;0.3985;385933.7;[4]
1807;27/5/2018 0:00;2018-05-27T23:00:00+0100;33699669;Heartless Crew, DJ Luck & MC Neat, Wookie, Martin Larner, and 8 more… at fabric (May 27, 2018);0.005667;Concert;Sunday;51.5195531;-0.1024779;27;45629;0.606;0.658;[9];-8.799;[1];0.0514;0.0646;0.00419;0.118;0.5;321513.12;[4]
17;14/5/2018 0:00;2018-05-14T19:30:00+0100;33275189;Oshun at Ghost Notes (May 14, 2018);0.000913;Concert;Monday;51.4706807;-0.0675578;44;13915;0.5585;0.5195;[1];-8.5345;[1];0.265;0.1835;0;0.163;0.416;225884.3;[4]
48;15/5/2018 0:00;2018-05-15T19:00:00+0100;32653209;Mary Chapin Carpenter with Emily Barker at Barbican Centre (May 15, 2018);0.015776;Concert;Tuesday;51.5198644;-0.0916989;38;62489;0.6245;0.525;[9];-9.0355;[1];0.0354;0.556;5.56E-05;0.1105;0.605;234007.35;[4]
54;15/5/2018 0:00;2018-05-15T19:30:00+0100;32750344;Emily Barker at Barbican Centre (May 15, 2018) (CANCELLED) ;0.000825;Concert;Tuesday;51.5198644;-0.0916989;29;7251;0.619;0.269;[2];-9.691;[1];0.0324;0.5645;0.00011575;0.1135;0.272;227488;[4]
67;15/5/2018 0:00;2018-05-15T19:00:00+0100;33187144;Ruby Francis with WAYI at Servant Jazz Quarters (May 15, 2018);5.40E-05;Concert;Tuesday;51.5486354;-0.0767334;28;872;0.654;0.49;[0];-6.539;[0];0.103;0.152;0;0.113;0.596;217458.8182;[4]
99;15/5/2018 0:00;2018-05-15T19:00:00+0100;33829749;Shakka at Archspace (May 15, 2018);0.00733;Concert;Tuesday;51.536671;-0.0758036;65;32166;0.706;0.67;[6];-6.765;[0];0.0987;0.188;0;0.1705;0.711;248897.4;[4]
115;16/5/2018 0:00;2018-05-16T19:30:00+0100;32855309;Deva Mahal at Rich Mix (May 16, 2018);0.000272;Concert;Wednesday;51.5242313;-0.0738117;44;4212;0.516;0.509;[7];-6.721;[0];0.0425;0.305;2.79E-05;0.0917;0.2515;247619.6;[4]
117;16/5/2018 0:00;2018-05-16T19:00:00+0100;32881584;Joey Dosik at The Jazz Cafe (May 16, 2018);0.000794;Concert;Wednesday;51.5387092;-0.1430815;44;8053;0.5455;0.301;[10];-12.2545;[1];0.0405;0.876;0.40732;0.108;0.3475;185404.3;[4]
126;16/5/2018 0:00;2018-05-16T19:30:00+0100;33188974;Rothwell with Emma McGrath at Thousand Island (formerly Upstairs at The Garage) (May 16, 2018);0.000272;Concert;Wednesday;51.5466983;-0.1038429;40.5;1786;0.626;0.484;[0];-7.636;[1];0.04245;0.4735;0;0.102;0.414;201275.6875;[4]
130;16/5/2018 0:00;2018-05-16T19:30:00+0100;33284009;Max Frost with Matt Wilson (UK) at Hoxton Square Bar & Kitchen (May 16, 2018);0.014707;Concert;Wednesday;51.527476;-0.081657;58;47017;0.78;0.7925;[7];-5.266;[1];0.0688;0.1066;0.002445;0.1135;0.743;204298.6;[4]
150;16/5/2018 0:00;2018-05-16T20:00:00+0100;33659314;Hejira and Tawiah with Fran & Flora at Kings Place (May 16, 2018);0.001645;Concert;Wednesday;51.534649;-0.122138;16.5;1810;0.5685;0.4205;[9];-10.8315;[1];0.03725;0.4475;0.0127;0.131;0.2365;282525.55;[4]
151;16/5/2018 0:00;2018-05-16T19:00:00+0100;33683804;Joel Culpepper with Aaron Taylor and San Scout at Omeara (May 16, 2018);0.001015;Concert;Wednesday;51.5041429;-0.094603;40;14393;0.603;0.5445;[0];-7.2645;[1];0.07195;0.281;0.0001825;0.113;0.4985;220996.4;[4]
192;17/5/2018 0:00;2018-05-17T19:30:00+0100;32966234;The Magic Numbers with Ren Harvieu and Penelope Isles at Student Central (ULU) (May 17, 2018);0.025813;Concert;Thursday;51.5214099;-0.1302396;13;54155;0.4595;0.6165;[2];-6.5385;[1];0.03395;0.157;0.000152;0.1445;0.398;254702.3182;[4]
203;17/5/2018 0:00;2018-05-17T19:00:00+0100;33387189;NOYA RAO at Archspace (May 17, 2018);3.90E-05;Concert;Thursday;51.536671;-0.0758036;16;539;0.709;0.437;[7];-10.0975;[0];0.05235;0.616;0.1535;0.103;0.262;225399.9;[4]
233;17/5/2018 0:00;2018-05-17T19:00:00+0100;33843439;Boadi at Relentless No 5 (May 17, 2018);3.40E-05;Concert;Thursday;51.5152444;-0.1292319;28;1072;0.5915;0.3965;[0];-10.762;[0];0.07845;0.517;0.003855;0.118;0.379;173879.9;[4]
261;18/5/2018 0:00;;32635739;Lack of Afro with Crowd Company and Noble & Heath at 100 Club (May 18, 2018);0.003855;Concert;Friday;51.5160992;-0.1351725;30.5;23926;0.6885;0.8145;[2];-6.546;[1];0.0556;0.08405;0.19805;0.112;0.739;227589.35;[4]
269;18/5/2018 0:00;2018-05-18T22:30:00+0100;32737054;DJ Spen at The Jazz Cafe (May 18, 2018);0.000639;Concert;Friday;51.5387092;-0.1430815;36;4040;0.802;0.691;[9];-7.1585;[0];0.0591;0.003245;0.0731;0.06125;0.738;395075.9;[4]
271;18/5/2018 0:00;2018-05-18T19:30:00+0100;32855314;Ashley Henry with Anoushka Lucas at Rich Mix (May 18, 2018);5.90E-05;Concert;Friday;51.5242313;-0.0738117;25;2080;0.4815;0.4685;[7];-8.8515;[1];0.0402;0.724;4.58E-05;0.1135;0.367;290385.6;[4]
331;18/5/2018 0:00;2018-05-18T17:00:00+0100;33825329;Louisa Johnson with Autumn Sharif at Indigo at The O2 (May 18, 2018);0.007987;Concert;Friday;51.5011333;0.0016653;;;;;;;;;;;;;;
384;19/5/2018 0:00;2018-05-19T19:30:00+0100;33316534;Alvarez Kings, PLYA, and JOYYA at Birthdays (May 19, 2018) (CANCELLED) ;0.00099;Concert;Saturday;51.5517702;-0.0751825;21;6713;0.582;0.666;[9];-6.675;[1];0.0382;0.0371;2.66E-05;0.098;0.359;217048.8235;[4]
428;19/5/2018 0:00;2018-05-19T02:30:00+0100;33760344;Fabio And Grooverider, Ed Solo, MC GQ, The Ragga Twins, and 4 more… at Dalston Roof Park (May 19, 2018);0.003468;Concert;Saturday;51.5469092;-0.0747739;22.5;22152;0.633;0.785;[2];-6.135;[1];0.0615;0.0277;0.494;0.104;0.474;303721.6863;[4]
431;19/5/2018 0:00;2018-05-19T19:30:00+0100;33789254;The Haggis Horns with Crowd Company at 229 Venue (May 19, 2018);0.002282;Concert;Saturday;51.5233785;-0.1449626;24.5;13933;0.678;0.8145;[2];-6.381;[1];0.0443;0.05915;0.19805;0.159;0.8215;275374.05;[4]
434;19/5/2018 0:00;2018-05-19T19:00:00+0100;33804309;Hil St. Soul at Pizza Express - Holborn (May 19, 2018);0.00357;Concert;Saturday;51.5180357;-0.1186285;37;24745;0.7575;0.5225;[7];-7.56;[0];0.1175;0.12105;1.96E-06;0.1275;0.6195;254137.3;[4]
437;19/5/2018 0:00;2018-05-19T19:30:00+0100;33851634;M w S at St John's Hoxton (May 19, 2018);2.90E-05;Concert;Saturday;51.5305339;-0.0836235;24;386;0.673;0.609;[5];-5.4275;[1];0.08135;0.4355;1.22E-05;0.1345;0.5555;176955.8333;[4]
484;20/5/2018 0:00;2018-05-20T20:00:00+0100;33713329;Micki Miller at Vortex Jazz Club (May 20, 2018);1.70E-05;Concert;Sunday;51.5487082;-0.0764992;26;1746;0.547;0.55;[0];-9.1565;[1];0.0939;0.3535;3.16E-05;0.186;0.4695;245886.2;[4]
486;20/5/2018 0:00;;33730264;Urban Village Fete 2018;0.005958;Festival;Sunday;51.4825766;-0.0076589;22;20416;0.744;0.702;[1];-9.1425;[0];0.1052;0.0239;0.2045;0.108;0.781;307224.5;[4]
493;20/5/2018 0:00;2018-05-20T21:00:00+0100;33871689;Cece Peniston at Quaglino's (May 20, 2018);0.003379;Concert;Sunday;51.5072201;-0.1385825;49;24595;0.7585;0.739;[11];-6.645;[0];0.0411;0.00196;6.08E-05;0.06615;0.6295;262564.4;[4]
495;20/5/2018 0:00;2018-05-20T10:30:00+0100;33877509;Caiti Baker at Hoxton Square Bar & Kitchen (May 20, 2018);0.000121;Concert;Sunday;51.527476;-0.081657;31;1178;0.6295;0.526;[2];-7.968;[1];0.0537;0.10095;0.0461;0.2155;0.5365;227091.8;[4]
504;21/5/2018 0:00;2018-05-21T19:00:00+0100;33023279;Poppy Ajudha at Omeara (May 21, 2018);0.000717;Concert;Monday;51.5041429;-0.094603;52;7625;0.59;0.483;[6];-8.3475;[0];0.0423;0.379;0.00307485;0.1054;0.366;255820.3;[4]
513;21/5/2018 0:00;2018-05-21T19:00:00+0100;33524669;King's Kaleidoscope with Rivers & Robots at The Garage (May 21, 2018);0.004031;Concert;Monday;51.5466583;-0.1040639;48;33837;0.591;0.424;[0];-11.3465;[1];0.03225;0.4055;0.00677;0.129;0.229;265298.5;[4]
554;22/5/2018 0:00;2018-05-22T19:30:00+0100;33316304;Spitfire with Blue Nation, Three Kings High, and Katalina Kicks at Hope & Anchor (May 22, 2018);0.000741;Concert;Tuesday;51.5432832;-0.1035182;6;599;0.563;0.8065;[9];-6.5015;[1];0.04495;0.00237;0.0001885;0.178;0.4925;205058.55;[4]
556;22/5/2018 0:00;2018-05-22T19:30:00+0100;33343429;Kadija Kamara with Tiger Lion and Abi Wade at The Finsbury (May 22, 2018);0.000211;Concert;Tuesday;51.5718998;-0.0963439;12;1026;0.566;0.5005;[0];-9.455;[1];0.03595;0.556;0.00887;0.1335;0.2515;236031.9333;[4]
593;13/4/2018 0:00;2018-04-13T19:00:00+0100;32126629;Nathaniel Rateliff & The Night Sweats and Slim Cessna's Auto Club at O2 Shepherd's Bush Empire (April 13, 2018);0.02388;Concert;Friday;51.503507;-0.2238407;46.5;251007;0.4785;0.752;[2];-6.234;[1];0.04625;0.2145;0.0004745;0.126;0.5745;254313.2;[4]
595;13/4/2018 0:00;2018-04-13T19:00:00+0100;32288729;Georgie Fame at Fairkytes Arts Center (April 13, 2018);0.003722;Concert;Friday;51.5650145;0.2182053;35;5696;0.5915;0.5205;[3];-10.009;[1];0.04;0.307;8.74E-06;0.227;0.6805;187896.3;[4]
596;13/4/2018 0:00;;32328904;Birdsworth with Peagypt and Amy Fitz Doyley at The Water Rats (April 13, 2018);1.20E-05;Concert;Friday;51.528958;-0.119524;3;125;0.673;0.596;[1];-9.416;[0];0.0426;0.215;1.99E-06;0.25;0.673;197120.7778;[4]
602;13/4/2018 0:00;;32419919;Keni Burke at 229 (April 13, 2018);0.00368;Concert;Friday;51.523464;-0.144249;37;4191;0.7085;0.584;[0];-8.618;[0];0.0863;0.256;7.50E-05;0.1445;0.8;245367.4;[4]
614;13/4/2018 0:00;;32580014;Ayanna Witter-Johnson at Cutty Sark (April 13, 2018);0.000259;Concert;Friday;51.4814581;-0.0083094;14;701;0.739;0.27;[7];-7.449;[1];0.0605;0.757;2.48E-05;0.11;0.455;221339.5556;[4]
618;13/4/2018 0:00;2018-04-13T19:00:00+0100;32673889;Speak, Brother with John Nicholas and Jules Rendell at Thousand Island (formerly Upstairs at The Garage) (April 13, 2018);8.40E-05;Concert;Friday;51.5466983;-0.1038429;16;1167;0.4265;0.4545;[1];-9.3335;[1];0.0393;0.1075;0.000237;0.135;0.2465;223865.25;[4]
628;13/4/2018 0:00;;32881449;Joel Culpepper and Hare Squead at Birthdays (April 13, 2018);0.00313;Concert;Friday;51.5517702;-0.0751825;46;21871;0.695;0.595;[11];-6.81;[0];0.0777;0.268;2.23E-05;0.103;0.627;237825;[4]
629;13/4/2018 0:00;2018-04-13T23:00:00+0100;32881704;Redlight, Toddla T, Coco, Steel Banglez, and 14 more… at fabric (April 13, 2018);0.01844;Concert;Friday;51.5195531;-0.1024779;31.5;94467;0.6645;0.7995;[1];-5.9445;[1];0.0648;0.00918;0.1315;0.1205;0.3705;258965.5672;[4]
631;13/4/2018 0:00;2018-04-13T19:30:00+0100;32885564;serpentwithfeet at Village Underground (April 13, 2018);0.001118;Concert;Friday;51.5237877;-0.0780335;42;14112;0.337;0.324;[0];-10.364;[1];0.0355;0.885;8.55E-05;0.108;0.132;250675.1429;[4]
639;13/4/2018 0:00;2018-04-13T23:00:00+0100;32988359;Lee Foss at Egg London (April 13, 2018);0.005091;Concert;Friday;51.5418112;-0.1252273;44;30280;0.81;0.6005;[0];-7.124;[0];0.05515;0.00202;0.08485;0.0844;0.674;330980.4;[4]
678;14/4/2018 0:00;2018-04-14T19:30:00+0100;31443789;Geno Washington & the Ram Jam Band at Suburbs (April 14, 2018);0.000303;Concert;Saturday;51.2501654;-0.5912318;14;487;0.488;0.783;[10];-6.027;[0];0.05625;0.206;0;0.2805;0.7825;153666.7;[4]
681;14/4/2018 0:00;2018-04-14T19:00:00+0100;31722494;The Neville Staple Band with Stranger Cole, The Paradimes, and Buster Shuffle at O2 Academy Islington (April 14, 2018);0.001253;Concert;Saturday;51.5345836;-0.1059202;26;5342;0.515;0.683;[0];-6.762;[1];0.0412;0.146;0.000141;0.136;0.883;184758.76;[4]
710;14/4/2018 0:00;2018-04-14T23:00:00+0100;32841314;Apollonia (Dyed Soundorom, Dan Ghenacia & Shonky), Dan Ghenacia, Dyed Soundorom, Shonky, and 1 more… at fabric (April 14, 2018);0.001195;Concert;Saturday;51.5195531;-0.1024779;13.5;6396;0.805;0.794;[11];-9.2805;[0];0.0541;0.0005365;0.857;0.0858;0.584;442275.85;[4]
714;14/4/2018 0:00;2018-04-14T22:00:00+0100;32869109;Frankie Feliciano, David Harness, D Malice, Kitty Amor, and 3 more… at The Prince of Wales (April 14, 2018);0.000202;Concert;Saturday;51.4615105;-0.1149433;19;1389;0.799;0.68;[4];-8.615;[0];0.0514;0.0125;0.541;0.092;0.757;493253.2245;[4]
751;14/4/2018 0:00;2018-04-14T19:00:00+0100;33466919;O'Flynn, Dan Shake, Krywald & Farrer, and Raw Silk at Hangar London Fields (April 14, 2018);0.000451;Concert;Saturday;51.5388795;-0.0578761;25;8972;0.752;0.768;[0];-9.651;[1];0.0546;0.0424;0.603;0.109;0.524;355446.3333;[4]
755;14/4/2018 0:00;2018-04-14T19:30:00+0100;33519434;Crowd Company at 229 (April 14, 2018);2.50E-05;Concert;Saturday;51.523464;-0.144249;6;160;0.554;0.8145;[2];-6.2225;[1];0.05035;0.01775;0.02905;0.1505;0.739;222440;[4]
786;15/4/2018 0:00;;33056954;Juliet Kelly with Celebrating the Divas of Jazz at Pizza Express Jazz Club - Soho (April 15, 2018);3.40E-05;Concert;Sunday;51.5151564;-0.1333585;4;93;0.7335;0.4555;[8];-10.076;[0];0.04085;0.6855;6.39E-06;0.177;0.535;218324;[4]
792;15/4/2018 0:00;2018-04-15T18:30:00+0100;33232894;Boadi at Stockwell Playhouse (April 15, 2018);1.20E-05;Concert;Sunday;51.4755202;-0.1316206;28;1072;0.5915;0.3965;[0];-10.762;[0];0.07845;0.517;0.003855;0.118;0.379;173879.9;[4]
803;15/4/2018 0:00;2018-04-15T19:00:00+0100;33432469;August Twelfth at Birthdays (April 15, 2018);3.50E-05;Concert;Sunday;51.5517702;-0.0751825;23;301;0.5755;0.6905;[1];-6.962;[0];0.148;0.2125;0;0.14;0.6875;201444.5;[4]
828;16/4/2018 0:00;2018-04-16T19:30:00+0100;33155004;Samuel Jack at Unknown venue (April 16, 2018);7.00E-05;Concert;Monday;51.5073509;-0.1277583;27;1287;0.5705;0.5555;[0];-6.694;[0];0.03835;0.3875;2.20E-05;0.167;0.275;210785.5;[4]
856;17/4/2018 0:00;2018-04-17T19:30:00+0100;32797069;Albin Lee Meldau with ViVii at Omeara (April 17, 2018);0.001791;Concert;Tuesday;51.5041429;-0.094603;43.5;20786;0.546;0.501;[9];-9.305;[1];0.0449;0.57;0.000186;0.155;0.332;193978.7273;[4]
857;17/4/2018 0:00;;32854714;Juliet Kelly at Elgar Room, Royal Albert Hall (April 17, 2018);3.40E-05;Concert;Tuesday;51.5012574;-0.1768302;4;93;0.7335;0.4555;[8];-10.076;[0];0.04085;0.6855;6.39E-06;0.177;0.535;218324;[4]
865;17/4/2018 0:00;2018-04-17T19:00:00+0100;33096424;Naughty Boy, Professor Green, Luisa Omielan, Emeli Sandé, and 5 more… at O2 Academy Brixton (April 17, 2018);0.14665;Concert;Tuesday;51.4651204;-0.1148897;59;2353959;0.62;0.7005;[0];-6.74;[1];0.0696;0.158;0;0.1115;0.4275;234391;[4]
885;18/4/2018 0:00;2018-04-18T18:45:00+0100;31177444;Gregory Porter at Royal Albert Hall (April 18, 2018);0.039438;Concert;Wednesday;51.500786;-0.1781517;62;260763;0.544;0.304;[4];-10.423;[1];0.056;0.732;0.000182;0.1195;0.2995;246516.4;[4]
898;18/4/2018 0:00;2018-04-18T23:00:00+0100;32536464;Jordan Rakei at Ronnie Scott's (April 18, 2018);0.015033;Concert;Wednesday;51.5134988;-0.131519;61;90512;0.6925;0.415;[0];-9.9745;[1];0.0564;0.2275;0.0003585;0.137;0.504;248856.9;[4]
900;18/4/2018 0:00;2018-04-18T19:30:00+0100;32561369;Oscar Jerome at Ghost Notes (April 18, 2018);0.000252;Concert;Wednesday;51.4706807;-0.0675578;36;5585;0.5755;0.5055;[5];-8.2905;[0];0.06075;0.559;0.0748;0.142;0.322;305549.5;[4]
928;18/4/2018 0:00;2018-04-18T19:00:00+0100;33285389;Kris Berry at Royal Albert Hall (April 18, 2018);0.000729;Concert;Wednesday;51.500786;-0.1781517;45;5809;0.7065;0.473;[0];-7.5825;[1];0.0371;0.4465;0.000841;0.106;0.564;225716;[4]
945;19/4/2018 0:00;2018-04-19T18:45:00+0100;31177449;Gregory Porter at Royal Albert Hall (April 19, 2018);0.039452;Concert;Thursday;51.500786;-0.1781517;62;260763;0.544;0.304;[4];-10.423;[1];0.056;0.732;0.000182;0.1195;0.2995;246516.4;[4]
949;19/4/2018 0:00;2018-04-19T19:00:00+0100;31893534;Aquilo with Scott Quinn at Oval Space (April 19, 2018);0.01898;Concert;Thursday;51.5331547;-0.0592616;54;142383;0.459;0.439;[1];-9.243;[1];0.0399;0.515;0.00192;0.106;0.195;206595.6667;[4]
952;19/4/2018 0:00;;31982494;Chairmen Of The Board at Under the Bridge (April 19, 2018);0.005891;Concert;Thursday;51.4773313;-0.2017231;34;2828;0.6985;0.778;[7];-5.677;[1];0.04975;0.1635;2.23E-06;0.10515;0.7655;200349.4;[4]
962;19/4/2018 0:00;2018-04-19T23:00:00+0100;32536469;Jordan Rakei at Ronnie Scott's (April 19, 2018);0.015033;Concert;Thursday;51.5134988;-0.131519;61;90512;0.6925;0.415;[0];-9.9745;[1];0.0564;0.2275;0.0003585;0.137;0.504;248856.9;[4]
964;19/4/2018 0:00;2018-04-19T19:30:00+0100;32601819;Dessa with Matthew Santos at Birthdays (April 19, 2018);0.006683;Concert;Thursday;51.5517702;-0.0751825;51.5;34662;0.593;0.581;[11];-8.4255;[0];0.0477;0.1895;3.88E-05;0.1065;0.298;217332.35;[4]
996;19/4/2018 0:00;;33285404;Kris Berry at Royal Albert Hall (April 19, 2018);0.000729;Concert;Thursday;51.500786;-0.1781517;45;5809;0.7065;0.473;[0];-7.5825;[1];0.0371;0.4465;0.000841;0.106;0.564;225716;[4]
1001;19/4/2018 0:00;2018-04-19T19:00:00+0100;33377519;IMAN at Sofar Sounds (April 19, 2018);0.001019;Concert;Thursday;51.5073509;-0.1277583;49;25542;0.4765;0.6625;[1];-8.145;[0];0.1415;0.08195;0.006418;0.195;0.529;185574.6;[4]
1010;19/4/2018 0:00;2018-04-19T19:30:00+0100;33570984;SERAPHINA at Notting Hill Arts Club (April 19, 2018);4.00E-06;Concert;Thursday;51.5093651;-0.1945393;10;43;0.487;0.424;[2];-8.839;[1];0.038;0.1424;0.0012695;0.111;0.1375;288296.1;[4]
1022;21/4/2018 0:00;2018-04-21T19:00:00+0100;31696764;Lisa Stansfield with Irit at London Palladium (April 21, 2018);0.02069;Concert;Saturday;51.514568;-0.140655;34;159147;0.6865;0.793;[11];-5.862;[0];0.04695;0.2245;3.91E-05;0.1045;0.7105;252569.8;[4]
1028;21/4/2018 0:00;2018-04-21T15:00:00+0100;32145664;The Urban Voodoo Machine with Goldwater, Tensheds, Mysterious Blues Experience, and 2 more… at New Cross Inn (April 21, 2018);0.000632;Concert;Saturday;51.4755797;-0.0382298;7;4761;0.516;0.63;[0];-7.634;[1];0.0594;0.137;0.00342;0.11;0.423;222661.3556;[4]
1053;21/4/2018 0:00;2018-04-21T23:00:00+0100;32841324;Hunee, Palms Trax, Suzanne Kraft, Hyenah, and 3 more… at fabric (April 21, 2018);0.001659;Concert;Saturday;51.5195531;-0.1024779;29;46731;0.718;0.708;[7];-9.522;[0];0.0472;0.0053;0.839;0.0897;0.356;400283.0164;[4]
1054;21/4/2018 0:00;2018-04-21T22:30:00+0100;32849584;Dego at The Jazz Cafe (April 21, 2018);0.000421;Concert;Saturday;51.5387092;-0.1430815;22;2120;0.8005;0.748;[1];-8.7405;[0];0.04875;0.00586;0.843;0.106;0.58;306096.1;[4]
1055;21/4/2018 0:00;2018-04-21T22:30:00+0100;32885764;Kareful, Pholo, MYSTXRIVL, enjoii, and 3 more… at Birthdays (April 21, 2018);0.000277;Concert;Saturday;51.5517702;-0.0751825;26;6962;0.559;0.698;[9];-7.2075;[1];0.04135;0.0172;0.648;0.12;0.10035;222671.6364;[4]
1065;21/4/2018 0:00;2018-04-21T19:00:00+0100;33104439;Casey Pearl with GeeJay at Archspace (April 21, 2018);0;Concert;Saturday;51.536671;-0.0758036;4.5;33;0.7585;0.62;[9];-9.3715;[1];0.1095;0.162;0;0.1175;0.549;251926.5;[4]
1082;21/4/2018 0:00;;33330699;The Queen's Birthday Party 2018;0.18987;Festival;Saturday;51.500786;-0.1781517;72;12212229;0.6255;0.624;[0];-6.7515;[1];0.05925;0.2175;0;0.118;0.532;211650.95;[4]
1084;21/4/2018 0:00;2018-04-21T19:00:00+0100;33375149;The John Langan Band and The Turbans at Islington Assembly Hall (April 21, 2018);0.00074;Concert;Saturday;51.5395158;-0.1024666;14;3168;0.53;0.383;[7];-8.252;[1];0.0431;0.802;0;0.153;0.773;174335.1818;[4]
1086;21/4/2018 0:00;;33379624;Fred Wesley & The New J.B.'s at The Bussey Building (April 21, 2018);0.000629;Concert;Saturday;51.4698579;-0.0682122;16;345;0.744;0.547;[10];-12.486;[1];0.0647;0.393;0.0829;0.0547;0.829;261164.3333;[4]
1115;22/4/2018 0:00;2018-04-22T19:00:00+0100;31862899;Danay Suarez at The Jazz Cafe (April 22, 2018);0.000907;Concert;Sunday;51.5387092;-0.1430815;40;24167;0.6265;0.537;[6];-8.5945;[0];0.0914;0.5475;0.000664;0.123;0.4575;249581.5;[4]
1116;22/4/2018 0:00;2018-04-22T19:00:00+0100;31941254;Detroit Cobras with The Masonics at Under the Bridge (April 22, 2018);0.006939;Concert;Sunday;51.4773313;-0.2017231;24;22350;0.482;0.9035;[11];-3.552;[1];0.0411;0.0267;0.00011095;0.184;0.7615;153268.7;[4]
1120;22/4/2018 0:00;2018-04-22T19:00:00+0100;32209484;Eric Roberson at Islington Assembly Hall (April 22, 2018);0.010955;Concert;Sunday;51.5395158;-0.1024666;48;57063;0.725;0.6075;[1];-7.8375;[0];0.1009;0.1039;9.31E-06;0.112;0.537;266475.1;[4]
1128;22/4/2018 0:00;2018-04-22T19:30:00+0100;32677249;Tellison with The Maple State and Olympians at The Lexington (April 22, 2018);0.001456;Concert;Sunday;51.5316567;-0.1114451;23;12062;0.5365;0.7035;[7];-7.0485;[1];0.03755;0.1415;0.0373;0.136;0.575;208952.8333;[4]
1129;22/4/2018 0:00;2018-04-22T18:30:00+0100;32732079;Danay Suarez and Vince Vella at The Jazz Cafe (April 22, 2018) (CANCELLED) ;0.000904;Concert;Sunday;51.5387092;-0.1430815;23;24259;0.659;0.593;[6];-8.56;[0];0.126;0.509;0.0104;0.113;0.538;256486;[4]
1141;22/4/2018 0:00;2018-04-22T19:00:00+0100;33299334;James Numbere with M w S and Mara Daniele at Hoxton Square Bar & Kitchen (April 22, 2018);2.20E-05;Concert;Sunday;51.527476;-0.081657;12.5;709;0.673;0.5545;[5];-6.01;[1];0.06095;0.4355;7.45E-07;0.119;0.5555;222167.5;[4]
1150;22/4/2018 0:00;2018-04-22T19:30:00+0100;33653159;Ruth Koleva with Ivo Dimchev at Zigfrid Von Underbelly (April 22, 2018);0.000235;Concert;Sunday;51.5280012;-0.0817678;17;2362;0.4495;0.401;[0];-9.295;[1];0.04825;0.563;0.0004515;0.1825;0.412;231250.9;[4]
1156;6/5/2018 0:00;2018-05-06T19:30:00+0100;31988284;Eric Bibb at Savoy Theatre (May 6, 2018);0.005299;Concert;Sunday;51.5116028;-0.1183185;44;22979;0.6145;0.293;[1];-12.834;[0];0.04505;0.845;0.0012645;0.109;0.5645;218532.6;[4]
1159;6/5/2018 0:00;2018-05-06T19:00:00+0100;32221554;Teedra Moses at XOYO (May 6, 2018) (CANCELLED) ;0.008657;Concert;Sunday;51.5255168;-0.0858669;47;57566;0.7045;0.5975;[0];-6.1895;[0];0.0806;0.215;4.21E-06;0.107;0.6715;265751.5;[4]
1161;6/5/2018 0:00;2018-05-06T18:30:00+0100;32537679;Shalamar at London Palladium (May 6, 2018);0.016775;Concert;Sunday;51.514568;-0.140655;51;120698;0.764;0.7455;[9];-8.8595;[0];0.0574;0.1875;0.000289;0.09505;0.8915;271327.3;[4]
1164;6/5/2018 0:00;;32675519;Norman Jay MBE at The Prince of Wales (May 6, 2018);0.000557;Concert;Sunday;51.4615105;-0.1149433;;;;;;;;;;;;;;
1166;6/5/2018 0:00;2018-05-06T12:00:00+0100;32686749;DJ Q, Noisia, Digital Mystikz, Paul Woodford, and 9 more… at Queen Elizabeth Olympic Park (May 6, 2018);0.092687;Concert;Sunday;51.5432961;-0.0165517;47;742631;0.6955;0.754;[1];-7.478;[1];0.0599;0.0195;0.455;0.126;0.465;293939.7727;[4]
1172;6/5/2018 0:00;2018-05-06T20:00:00+0100;32965824;Jessica Reedy at Under the Bridge (May 6, 2018);0.002697;Concert;Sunday;51.4773313;-0.2017231;42;40513;0.4945;0.5555;[1];-6.3555;[1];0.1044;0.2915;0;0.1865;0.2915;281558.3;[4]
1187;6/5/2018 0:00;2018-05-06T14:00:00+0100;33233289;Joe Claussell, Bradley Zero, Secretsundaze, carista, and 1 more… at Oval Space (May 6, 2018);0.000548;Concert;Sunday;51.5331547;-0.0592616;3.5;1735;0.725;0.821;[7];-7.025;[1];0.0536;0.00817;0.38;0.123;0.578;585558.6316;[4]
1191;6/5/2018 0:00;2018-05-06T19:00:00+0100;33288494;Geno Washington & the Ram Jam Band at Half Moon, Putney (May 6, 2018);0.000304;Concert;Sunday;51.4678461;-0.2217681;14;487;0.488;0.783;[10];-6.027;[0];0.05625;0.206;0;0.2805;0.7825;153666.7;[4]
1195;6/5/2018 0:00;;33375404;Joe T Vannelli at Gigalum (May 6, 2018);0.000966;Concert;Sunday;51.4537468;-0.1462999;27;2356;0.769;0.8445;[1];-7.326;[0];0.04665;0.00678;0.852;0.1515;0.188;350868.6;[4]
1202;6/5/2018 0:00;;33455389;Treetop Flyers at Servant Jazz Quarters (May 6, 2018);0.002381;Concert;Sunday;51.5486354;-0.0767334;24;5290;0.463;0.459;[2];-10.3805;[1];0.0343;0.2955;0.000498;0.15;0.425;300901.6;[4]
1214;6/5/2018 0:00;2018-05-06T16:30:00+0100;33698514;Disastronaut with Freakpower at The Bell Pub (May 6, 2018);0.001634;Concert;Sunday;51.5902561;-0.0170213;4;132;0.675;0.607;[7];-7.72;[1];0.0444;0.145;0.694;0.109;0.402;348914.1818;[4]
1237;7/5/2018 0:00;2018-05-07T19:00:00+0100;32821834;Mr Jukes at The Jazz Cafe (May 7, 2018);0.003023;Concert;Monday;51.5387092;-0.1430815;49;23487;0.6455;0.6875;[0];-6.2195;[0];0.0433;0.1375;0.0159;0.12;0.594;236819.7;[4]
1239;7/5/2018 0:00;2018-05-07T19:00:00+0100;33089059;Daley at Village Underground (May 7, 2018);0.011509;Concert;Monday;51.5237877;-0.0780335;46;55106;0.5325;0.496;[0];-8.2;[0];0.0655;0.2955;7.00E-07;0.09635;0.3025;235265.9;[4]
1254;7/5/2018 0:00;2018-05-07T19:30:00+0100;33642839;Jules Rendell at Unknown venue (May 7, 2018);1.40E-05;Concert;Monday;51.5073509;-0.1277583;12;124;0.5535;0.3935;[1];-10.8585;[0];0.0416;0.1535;0.000679;0.1835;0.287;213855.5;[4]
1269;8/5/2018 0:00;2018-05-08T19:00:00+0100;32592369;ALAZKA with We Came As Romans, Polaris, and The Plot In You at The Underworld (May 8, 2018);0.055346;Concert;Tuesday;51.538488;-0.142103;54;461316;0.495;0.95;[6];-4.043;[1];0.0862;0.000572;5.11E-05;0.158;0.2435;236125.8;[4]
1270;8/5/2018 0:00;2018-05-08T19:00:00+0100;32603764;Yellow Days at KOKO (May 8, 2018);0.00491;Concert;Tuesday;51.534617;-0.138338;62;106986;0.5765;0.4925;[9];-8.4925;[1];0.0359;0.4805;0.005305;0.202;0.316;268682.8;[4]
1276;8/5/2018 0:00;2018-05-08T19:00:00+0100;32969834;Gabrielle at The Jazz Cafe (May 8, 2018);0.029458;Concert;Tuesday;51.5387092;-0.1430815;64;359986;0.4685;0.426;[0];-9.1545;[1];0.03765;0.671;1.68E-06;0.1055;0.275;220888.3;[4]
1284;8/5/2018 0:00;2018-05-08T19:30:00+0100;33269739;The Teskey Brothers at Omeara (May 8, 2018);0.000774;Concert;Tuesday;51.5041429;-0.094603;47;15600;0.617;0.345;[9];-8.557;[0];0.0363;0.709;0.00374;0.114;0.436;294855.6667;[3]
1286;8/5/2018 0:00;2018-05-08T19:30:00+0100;33316419;HONNE at Village Underground (May 8, 2018);0.031411;Concert;Tuesday;51.5237877;-0.0780335;68;242526;0.557;0.569;[0];-7.0135;[1];0.06445;0.207;0.0005035;0.134;0.4095;236828.3;[4]
1309;9/5/2018 0:00;2018-05-09T19:00:00+0100;31570464;Odyssey at The Jazz Cafe (May 9, 2018);0.013418;Concert;Wednesday;51.5387092;-0.1430815;46;17017;0.626;0.803;[1];-9.7055;[1];0.05485;0.1925;0.00151;0.09475;0.7705;259657.4;[4]
1310;9/5/2018 0:00;2018-05-09T19:30:00+0100;31941904;Bruno Major at Village Underground (May 9, 2018);0.002653;Concert;Wednesday;51.5237877;-0.0780335;65;70264;0.5835;0.302;[5];-9.231;[1];0.04985;0.7635;5.49E-05;0.11;0.336;191597.8;[3]
1390;10/5/2018 0:00;2018-05-10T19:00:00+0100;33053139;Blossoms and Touts at O2 Forum Kentish Town (May 10, 2018);0.014412;Concert;Thursday;51.5521427;-0.1422245;38.5;169617;0.46;0.8955;[2];-5.899;[1];0.04595;0.0007915;0.000543;0.118;0.617;191840.5556;[4]
1401;19/5/2018 0:00;2018-05-19T14:00:00+0100;33941424;Melissa Bel at The Cat's Back (May 19, 2018);3.20E-05;Concert;Saturday;51.4618975;-0.1995631;5;204;0.6375;0.7;[9];-5.177;[0];0.0487;0.1725;7.70E-07;0.1075;0.609;210232.8;[4]
1403;18/5/2018 0:00;;33944864;Vanjess at Ace Hotel Miranda (May 18, 2018);0.002057;Concert;Friday;51.5254162;-0.0772849;47;5975;0.7175;0.531;[11];-7.7645;[0];0.0757;0.141;4.14E-06;0.1085;0.4425;251072.6;[4]
1428;23/5/2018 0:00;2018-05-23T19:30:00+0100;32922424;TEEKS at St Pancras Old Church (May 23, 2018);0.000196;Concert;Wednesday;51.5334728;-0.1286371;41;9775;0.481;0.257;[8];-12.438;[1];0.0427;0.708;0.000629;0.123;0.188;187094.5714;[3]
1465;23/5/2018 0:00;2018-05-23T19:00:00+0100;33754304;Suelily, Shaun Sky, and Rasharn Powell at Shoreditch Platform (May 23, 2018);1.40E-05;Concert;Wednesday;51.5273615;-0.0782888;10;387;0.6;0.4405;[1];-11.0285;[0];0.306;0.584;4.31E-05;0.11;0.478;178828.7692;[4]
1497;24/5/2018 0:00;2018-05-24T19:00:00+0100;32919984;Smoove & Turrell with Izo FitzRoy at Archspace (May 24, 2018);0.002803;Concert;Thursday;51.536671;-0.0758036;37.5;14189;0.722;0.691;[2];-7.3415;[0];0.0538;0.07815;0.0001132;0.08955;0.7545;263544.6;[4]
1502;24/5/2018 0:00;2018-05-24T19:30:00+0100;33054589;Louis Baker with Harrison Storm at The Islington (May 24, 2018);0.002089;Concert;Thursday;51.5344315;-0.1087937;50.5;28196;0.459;0.267;[7];-11.6805;[1];0.03675;0.709;2.21E-05;0.11;0.1955;235301.3;[4]
1528;24/5/2018 0:00;2018-05-24T19:00:00+0100;33608624;The Wholls with The Sons, The Strawberries, The Freakouts, and 1 more… at Nambucca (May 24, 2018);0.000795;Concert;Thursday;51.5609729;-0.1236348;17.5;43282;0.553;0.681;[4];-7.46;[1];0.0499;0.0153;3.64E-05;0.118;0.416;220174.28;[4]
1550;24/5/2018 0:00;;33906044;Alexander Biggs with Stella Talpo at The Old Blue Last (May 24, 2018);0.00047;Concert;Thursday;51.5243593;-0.0801042;26.5;2239;0.5015;0.2985;[0];-11.163;[1];0.04075;0.793;0.0002745;0.1125;0.218;219518.7143;[4]
1571;25/5/2018 0:00;2018-05-25T18:00:00+0100;31594584;Nick Heyward with Pugwash at O2 Academy Islington (May 25, 2018);0.002198;Concert;Friday;51.5345836;-0.1059202;22.5;7328;0.523;0.6715;[9];-8.544;[1];0.0315;0.0514;0.000304;0.123;0.6885;216470.6;[4]
, 3.04e-05, 0, 2.72e-05, 0.0116, 2.86e-06, 0.0106, 0.000116, 0.0202, 0.12, 0.0175, 0, 0.0316, 0.00601, 0.0082, 0.477, 0.0191, 0.00607, 0.00767, 4.71e-05, 0.000133, 0.00938, 0.0949, 0.000433, 7.43e-06, 0.0172, 0.00786, 0.315, 0.201, 0.0939, 0.352, 0.0142, 5.54e-06, 0.313, 0.595, 0.00862, 0.339, 0.0019, 1.73e-06, 1.8e-06, 0.00153, 5.96e-06, 0.0038, 0.00161, 0, 0.156, 0.00226, 0, 0.366, 0.073, 0.139, 0.0981, 0, 0.000106, 0, 0.766, 0.00039, 0, 0.00128, 7.22e-05, 0.00383, 7.91e-05, 0.0229, 0.124, 0.0122, 4.47e-05, 0, 3.79e-05, 0.000102, 0.00161, 0.145, 1.94e-05, 0.00129, 0.0245, 0.00419, 0.000545, 0.196, 0, 0, 0.00625, 0, 0, 1.48e-06, 0, 8.28e-05, 0.00194, 0.0173, 0.000384, 0.0641, 0.00157, 0, 0.0474, 0.00037, 0.00302, 0.864, 0.0063, 0.2, 0.725, 0.653, 0.625, 0.00374, 0.000525, 0.00013, 0.00178, 0.131, 0.00411, 0.00509, 0.00016, 0.0962, 0.0229, 0.00096, 0.546, 0.000385, 1.53e-05, 1.51e-06, 8.66e-06, 6.22e-06, 0.0196, 0, 0.00187, 0.0586, 0, 0.000554, 0.141, 0.000604, 8.4e-06, 0, 0.00186, 0.00216, 0.000108, 0.0142, 0.00165, 0.375, 0.00407, 0.00132, 8.84e-06, 0.00773, 0.743, 0.907, 0.913, 0.819, 0.892, 0.707, 0.888, 0.0739, 0.911, 0.881, 0.00606, 0.000931, 0.0121, 5.47e-06, 2.01e-05, 1.43e-06, 0.000762, 0.000218, 0.00146, 8.99e-05, 0.755, 0.0576, 0.369, 0.442, 0.0534, 0.0342, 0.0134, 0.651, 0.00413, 0.00689, 0.723, 0.0242, 0.000727, 0.946, 0.000664, 0.000123, 0.839, 9.09e-06, 0.819, 5.67e-06, 0, 0, 0, 0, 0, 0, 0, 0, 0, 0, 0.000218, 0.000656, 0.704, 0.0142, 0.128, 0.0357, 0.781, 0.164, 0.846, 0.108, 2.07e-05, 0.00209, 0.0346, 0.000748, 0.414, 0.0161, 0.00113, 0.0373, 0.922, 0.139, 0.804, 0.298, 0.773, 0.821, 0.896, 0.783, 0.714, 0.273, 0.00544, 0.914, 1.9e-05, 0, 3.1e-06, 0.00024, 0.000215, 0.000157, 0.0184, 1.92e-05, 1.88e-06, 4.27e-06, 1.11e-06, 0, 8.25e-05, 0, 0.423, 0, 1.88e-05, 0.0113, 0.000116, 0, 0.00474, 0, 0.00352, 0, 0, 0, 0.000168, 0, 0, 3e-06, 0.764, 0.0112, 0.0013, 0.968, 0.0603, 0.0383, 0.0108, 0.529, 0.359, 0.138, 1.28e-05, 4.01e-05, 2.27e-06, 4.05e-05, 0.000201, 0.149, 0, 0.0478, 1.63e-06, 0.000329, 0.000133, 0.379, 0.798, 0.905, 0.912, 0.109, 0.878, 0.898, 0.92, 0.515, 0.829, 0.815, 0.655, 0.893, 0.87, 0.88, 0.884, 0.902, 0.884, 0.894, 0.878, 0.224, 0.897, 0.855, 0.899, 0.864, 0.916, 0.73, 0.825, 0.719, 5.72e-05, 6.17e-05, 0.0551, 0.503, 0.00426, 0.00132, 0.577, 0.000116, 0.0014, 0.0049, 0.0415, 0.802, 0.00518, 0.0363, 0.202, 0.000461, 0.112, 0.0116, 0.0517, 0.197, 0.000114, 0.000375, 0.0168, 1.95e-05, 9.16e-06, 0.00739, 0.124, 0.000118, 0.369, 0.0145, 0.00211, 0.0106, 0.0148, 0.0085, 0.0177, 0.00186, 4.12e-05, 0.000234, 0.697, 0, 0.599, 0.911, 0.899, 0.941, 0.876, 0.818, 0.873, 0.907, 0.933, 0.823, 0.499, 0.0134, 0.745, 0.888, 0.918, 0.812, 0.896, 0.378, 0.891, 0.767, 0.0406, 0.00991, 0.000581, 0.00307, 0.021, 1.91e-05, 0.0999, 4.3e-05, 0.0515, 0.00413, 0.0284, 0.0112, 0.365, 0.292, 0.0558, 0.0352, 0.279, 0.0133, 0.000732, 0.0392, 0.0014, 0.338, 0, 3.08e-06, 0.0466, 0.000434, 0.48, 4.8e-05, 7.68e-05, 0.0327, 0.933, 0.886, 0.886, 0.854, 0.409, 0.855, 0.775, 0.936, 0.802, 0.848, 0.873, 0.832, 0.465, 0.67, 0.808, 0.921, 0.924, 0.665, 0.725, 0.897, 0.00126, 0.0548, 0.00156, 0.485, 0.0107, 0.252, 0.229, 0.0322, 0.095, 0.574, 0.0644, 0.655, 0.924, 0.849, 0.924, 0.849, 0.634, 0.927, 0.485, 0.941, 0, 0.00117, 0.000655, 9.65e-05, 0.00383, 9.89e-05, 0.00748, 0.000122, 0, 0, 0.902, 0.94, 0.872, 0.961, 0.872, 0.96, 0.858, 0.909, 0.915, 0.928, 0.00353, 0.0917, 0.031, 0.197, 0.0356, 0.0205, 0.399, 0.0354, 0.0416, 2.89e-05, 0.773, 0.916, 0.472, 0.883, 0.885, 0.884, 0.311, 0.943, 0.894, 0.839, 0.0357, 0.193, 8.5e-06, 1.17e-05, 0.0454, 0.024, 0.00401, 0.000349, 0.0165, 0.0439, 0, 0.903, 0.000374, 0.0429, 0.904, 0.00121, 0.878, 0.859, 0.775, 0.841, 0.846, 0.775, 0.902, 5.82e-06, 0.893, 0.355, 0.929, 0.934, 0.877, 0.665, 0.821, 0.105, 0.702, 0.787, 0.234, 0.123, 0.17, 0.0116, 0.249, 0.0798, 0.234, 0.0108, 0.345, 0.502, 0, 0.069, 0.011, 0, 2.77e-05, 0.00924, 0, 0, 0, 0, 0.761, 0.9, 0.808, 0.0493, 0.837, 0.877, 0.903, 0.89, 0.519, 0.819, 0.464, 0.0515, 0.00705, 5.33e-05, 0.000127, 0.107, 0.0184, 0.0752, 3.86e-05, 0.313, 0.803, 0.787, 0.597, 0.0773, 0.784, 0.802, 0.839, 0.917, 0.726, 0.762, 0.0698, 0.696, 0.225, 0.136, 0.00314, 0.0649, 0.00134, 0.439, 0.00712, 0.217, 0.446, 0.844, 0.00588, 0.845, 0.0129, 0.813, 0.0812, 0.706, 0.169, 0.858, 0.0446, 0.897, 0.868, 0.887, 0.00324, 0.588, 0.498, 0.722, 0.773, 0.0144, 0, 9.1e-05, 0, 0, 1.34e-06, 0.0202, 6.5e-05, 0.0583, 0.0356, 1.27e-06, 0.0136, 0.931, 0.589, 0.917, 0.733, 0.311, 0.921, 0.814, 0.932, 0.86, 0.864, 0.918, 0.85, 0.792, 0.854, 0.948, 0.903, 0.603, 0.849, 0.787, 1.61e-05, 0.00148, 5.01e-05, 0.0177, 0.674, 0.889, 0.482, 0.735, 0.893, 0.829, 0.51, 0.891, 0.81, 0.844, 0.818, 0.883, 0.909, 0.932, 0.972, 0.95, 0.848, 1.38e-06, 0.872, 0.391, 0.131, 0.00499, 0.722, 0.733, 0.921, 0.00265, 0.0869, 0, 0.873, 0.871, 0.793, 0.944, 0.925, 0.211, 0.846, 0.823, 0.808, 0.952, 0.964, 0.0843, 0.881, 0.924, 0.81, 0.864, 0.809, 0.902, 0.899, 0.931, 0.886, 0.000667, 0.00401, 1.6e-05, 0.133, 0.906, 0.00222, 4.5e-05, 0.000494, 0.000178, 0.865], 'instrumentalness_mean': 0.32711598733624453, 'instrumentalness_median': 0.0593, 'instrumentalness_min': 0, 'instrumentalness_max': 0.972, 'liveness': [0.128, 0.109, 0.101, 0.107, 0.0998, 0.084, 0.147, 0.231, 0.21, 0.1, 0.135, 0.0817, 0.157, 0.0944, 0.128, 0.271, 0.0801, 0.0891, 0.0901, 0.0781, 0.289, 0.116, 0.305, 0.074, 0.111, 0.0908, 0.248, 0.0605, 0.105, 0.089, 0.0646, 0.497, 0.195, 0.127, 0.141, 0.0737, 0.125, 0.0908, 0.104, 0.318, 0.0701, 0.544, 0.298, 0.291, 0.403, 0.0869, 0.383, 0.104, 0.06, 0.293, 0.0839, 0.116, 0.0516, 0.235, 0.127, 0.13, 0.109, 0.0717, 0.905, 0.0895, 0.824, 0.0985, 0.237, 0.0968, 0.07, 0.303, 0.113, 0.0817, 0.652, 0.119, 0.0691, 0.382, 0.292, 0.07, 0.0743, 0.0957, 0.101, 0.149, 0.435, 0.13, 0.0927, 0.0652, 0.113, 0.354, 0.236, 0.357, 0.115, 0.139, 0.115, 0.111, 0.271, 0.0783, 0.101, 0.0753, 0.126, 0.0991, 0.2, 0.0828, 0.21, 0.0944, 0.261, 0.3, 0.108, 0.114, 0.138, 0.131, 0.593, 0.16, 0.149, 0.311, 0.04, 0.648, 0.0977, 0.11, 0.0217, 0.115, 0.233, 0.0782, 0.0781, 0.43, 0.136, 0.0695, 0.313, 0.091, 0.391, 0.088, 0.0907, 0.174, 0.318, 0.332, 0.12, 0.221, 0.121, 0.0891, 0.171, 0.0901, 0.0397, 0.0634, 0.151, 0.216, 0.107, 0.654, 0.101, 0.609, 0.512, 0.0923, 0.0825, 0.104, 0.228, 0.111, 0.098, 0.114, 0.102, 0.182, 0.357, 0.107, 0.0866, 0.28, 0.0971, 0.114, 0.103, 0.0814, 0.212, 0.391, 0.0784, 0.165, 0.0651, 0.111, 0.0889, 0.101, 0.108, 0.281, 0.115, 0.0749, 0.104, 0.11, 0.207, 0.177, 0.306, 0.125, 0.123, 0.102, 0.295, 0.196, 0.109, 0.152, 0.109, 0.0874, 0.113, 0.141, 0.477, 0.0995, 0.234, 0.181, 0.314, 0.0971, 0.138, 0.0605, 0.115, 0.239, 0.0504, 0.0392, 0.0914, 0.138, 0.0299, 0.0772, 0.329, 0.227, 0.0997, 0.16, 0.0838, 0.103, 0.298, 0.246, 0.0813, 0.267, 0.0737, 0.134, 0.0879, 0.109, 0.111, 0.167, 0.278, 0.0511, 0.0931, 0.0625, 0.338, 0.0987, 0.359, 0.107, 0.108, 0.109, 0.142, 0.108, 0.0963, 0.0948, 0.128, 0.0731, 0.168, 0.131, 0.0648, 0.16, 0.119, 0.0855, 0.112, 0.0763, 0.107, 0.34, 0.122, 0.134, 0.096, 0.115, 0.522, 0.121, 0.103, 0.131, 0.103, 0.183, 0.106, 0.0902, 0.0592, 0.0968, 0.0856, 0.136, 0.528, 0.191, 0.0851, 0.117, 0.0922, 0.169, 0.206, 0.139, 0.125, 0.152, 0.104, 0.0806, 0.37, 0.069, 0.116, 0.0692, 0.0919, 0.106, 0.167, 0.324, 0.201, 0.27, 0.232, 0.124, 0.187, 0.0728, 0.574, 0.0912, 0.41, 0.637, 0.305, 0.116, 0.375, 0.127, 0.521, 0.907, 0.0822, 0.212, 0.0817, 0.0904, 0.0962, 0.106, 0.0969, 0.243, 0.105, 0.115, 0.0565, 0.0943, 0.134, 0.0933, 0.115, 0.106, 0.127, 0.106, 0.225, 0.115, 0.106, 0.0824, 0.114, 0.123, 0.0792, 0.108, 0.0664, 0.0891, 0.183, 0.0874, 0.0947, 0.352, 0.0828, 0.0897, 0.147, 0.193, 0.359, 0.124, 0.0957, 0.309, 0.205, 0.31, 0.289, 0.126, 0.425, 0.104, 0.199, 0.279, 0.11, 0.103, 0.112, 0.0945, 0.107, 0.104, 0.0942, 0.0842, 0.0401, 0.358, 0.115, 0.0541, 0.183, 0.0703, 0.0944, 0.107, 0.0698, 0.0725, 0.54, 0.111, 0.101, 0.104, 0.114, 0.0776, 0.0961, 0.372, 0.378, 0.115, 0.0784, 0.182, 0.25, 0.116, 0.258, 0.399, 0.118, 0.0718, 0.153, 0.0626, 0.335, 0.0951, 0.107, 0.0924, 0.0674, 0.109, 0.125, 0.116, 0.145, 0.102, 0.102, 0.0589, 0.136, 0.114, 0.52, 0.414, 0.111, 0.118, 0.404, 0.124, 0.102, 0.731, 0.106, 0.0344, 0.484, 0.496, 0.279, 0.0425, 0.109, 0.141, 0.0993, 0.19, 0.0796, 0.125, 0.0794, 0.113, 0.0799, 0.0859, 0.356, 0.0779, 0.151, 0.083, 0.931, 0.0582, 0.127, 0.312, 0.128, 0.107, 0.11, 0.0945, 0.15, 0.0748, 0.193, 0.103, 0.0763, 0.199, 0.0936, 0.17, 0.337, 0.253, 0.361, 0.7, 0.105, 0.0783, 0.167, 0.0894, 0.347, 0.0829, 0.0878, 0.113, 0.0969, 0.0994, 0.167, 0.116, 0.122, 0.111, 0.166, 0.513, 0.703, 0.122, 0.116, 0.104, 0.123, 0.117, 0.0546, 0.2, 0.109, 0.0557, 0.119, 0.126, 0.0682, 0.138, 0.0546, 0.0725, 0.0772, 0.245, 0.241, 0.145, 0.345, 0.182, 0.141, 0.106, 0.149, 0.133, 0.113, 0.115, 0.103, 0.126, 0.153, 0.128, 0.317, 0.469, 0.584, 0.127, 0.0805, 0.0949, 0.093, 0.0774, 0.0765, 0.0859, 0.0782, 0.0625, 0.301, 0.21, 0.12, 0.3, 0.0828, 0.139, 0.0784, 0.0575, 0.0692, 0.0907, 0.123, 0.106, 0.109, 0.412, 0.185, 0.132, 0.228, 0.101, 0.138, 0.372, 0.0902, 0.0989, 0.181, 0.123, 0.063, 0.0397, 0.0841, 0.0881, 0.109, 0.216, 0.0463, 0.175, 0.0565, 0.313, 0.112, 0.102, 0.0747, 0.0347, 0.0575, 0.37, 0.329, 0.0831, 0.029, 0.0953, 0.109, 0.256, 0.26, 0.107, 0.0714, 0.0665, 0.198, 0.263, 0.0743, 0.155, 0.108, 0.0908, 0.0835, 0.0423, 0.0759, 0.0587, 0.339, 0.11, 0.0998, 0.143, 0.111, 0.103, 0.0657, 0.13, 0.185, 0.141, 0.23, 0.193, 0.119, 0.699, 0.18, 0.0695, 0.159, 0.566, 0.0857, 0.0953, 0.707, 0.057, 0.0548, 0.164, 0.0999, 0.0726, 0.407, 0.118, 0.107, 0.176, 0.0981, 0.109, 0.074, 0.0985, 0.109, 0.0136, 0.0436, 0.102, 0.115, 0.111, 0.107, 0.0852, 0.0944, 0.134, 0.11, 0.09, 0.109, 0.0876, 0.105, 0.118, 0.1, 0.171, 0.11, 0.207, 0.118, 0.111, 0.0954, 0.142, 0.0932, 0.0504, 0.106, 0.0541, 0.0602, 0.66, 0.217, 0.0565, 0.227, 0.173, 0.0516, 0.13, 0.0511, 0.122, 0.114, 0.128, 0.0963, 0.0812, 0.126, 0.103, 0.182, 0.353, 0.114, 0.731, 0.0523, 0.351, 0.126, 0.109, 0.41, 0.0687, 0.173, 0.178, 0.0342, 0.111, 0.0454, 0.0682, 0.0947, 0.483, 0.101, 0.0903, 0.16, 0.0939, 0.115, 0.172, 0.156, 0.147, 0.161, 0.0864, 0.102, 0.115, 0.095, 0.112, 0.305, 0.0598, 0.147, 0.113, 0.123, 0.229, 0.333, 0.232, 0.29], 'liveness_mean': 0.16616157205240176, 'liveness_median': 0.113, 'liveness_min': 0.0136, 'liveness_max': 0.931, 'valence': [0.16, 0.35, 0.342, 0.282, 0.47, 0.422, 0.668, 0.383, 0.565, 0.467, 0.331, 0.24, 0.172, 0.345, 0.537, 0.402, 0.158, 0.132, 0.217, 0.17, 0.788, 0.446, 0.655, 0.794, 0.529, 0.683, 0.581, 0.385, 0.537, 0.544, 0.836, 0.305, 0.719, 0.905, 0.634, 0.859, 0.96, 0.709, 0.964, 0.761, 0.779, 0.164, 0.791, 0.875, 0.0756, 0.257, 0.147, 0.739, 0.2, 0.303, 0.306, 0.381, 0.109, 0.607, 0.37, 0.272, 0.701, 0.316, 0.545, 0.35, 0.496, 0.283, 0.491, 0.583, 0.527, 0.508, 0.661, 0.282, 0.424, 0.297, 0.25, 0.0357, 0.525, 0.837, 0.239, 0.515, 0.0368, 0.52, 0.285, 0.361, 0.105, 0.637, 0.738, 0.59, 0.666, 0.625, 0.245, 0.269, 0.361, 0.804, 0.945, 0.884, 0.894, 0.952, 0.7, 0.898, 0.775, 0.946, 0.597, 0.599, 0.283, 0.184, 0.403, 0.275, 0.294, 0.1, 0.217, 0.424, 0.274, 0.584, 0.794, 0.781, 0.795, 0.396, 0.977, 0.0909, 0.695, 0.78, 0.344, 0.839, 0.785, 0.462, 0.362, 0.811, 0.377, 0.957, 0.52, 0.863, 0.361, 0.771, 0.606, 0.523, 0.637, 0.472, 0.784, 0.266, 0.612, 0.417, 0.522, 0.151, 0.178, 0.175, 0.265, 0.613, 0.563, 0.442, 0.415, 0.221, 0.394, 0.165, 0.738, 0.831, 0.84, 0.585, 0.526, 0.96, 0.536, 0.586, 0.913, 0.628, 0.477, 0.158, 0.558, 0.635, 0.776, 0.171, 0.421, 0.522, 0.461, 0.156, 0.233, 0.204, 0.395, 0.491, 0.219, 0.723, 0.662, 0.75, 0.628, 0.292, 0.394, 0.322, 0.504, 0.155, 0.431, 0.504, 0.289, 0.56, 0.495, 0.476, 0.484, 0.597, 0.724, 0.531, 0.601, 0.185, 0.514, 0.772, 0.501, 0.315, 0.69, 0.594, 0.731, 0.86, 0.862, 0.751, 0.862, 0.864, 0.934, 0.647, 0.802, 0.331, 0.665, 0.274, 0.466, 0.182, 0.148, 0.082, 0.124, 0.0434, 0.792, 0.619, 0.93, 0.915, 0.33, 0.965, 0.376, 0.842, 0.608, 0.109, 0.09, 0.413, 0.207, 0.134, 0.367, 0.339, 0.429, 0.235, 0.103, 0.353, 0.142, 0.504, 0.225, 0.154, 0.16, 0.46, 0.333, 0.271, 0.121, 0.361, 0.537, 0.32, 0.567, 0.318, 0.222, 0.329, 0.249, 0.244, 0.26, 0.463, 0.442, 0.656, 0.415, 0.381, 0.481, 0.419, 0.119, 0.447, 0.728, 0.144, 0.714, 0.534, 0.706, 0.816, 0.569, 0.454, 0.746, 0.531, 0.845, 0.766, 0.221, 0.3, 0.118, 0.345, 0.479, 0.4, 0.535, 0.247, 0.124, 0.238, 0.772, 0.884, 0.807, 0.929, 0.783, 0.671, 0.566, 0.595, 0.869, 0.513, 0.111, 0.404, 0.0829, 0.122, 0.0371, 0.0823, 0.153, 0.308, 0.0392, 0.246, 0.608, 0.457, 0.527, 0.174, 0.308, 0.294, 0.311, 0.468, 0.36, 0.122, 0.607, 0.724, 0.742, 0.701, 0.67, 0.143, 0.796, 0.243, 0.562, 0.87, 0.625, 0.451, 0.519, 0.659, 0.538, 0.351, 0.305, 0.875, 0.574, 0.695, 0.351, 0.196, 0.636, 0.134, 0.549, 0.268, 0.503, 0.314, 0.273, 0.318, 0.712, 0.0397, 0.116, 0.113, 0.172, 0.623, 0.26, 0.419, 0.245, 0.222, 0.303, 0.299, 0.226, 0.165, 0.626, 0.714, 0.036, 0.235, 0.287, 0.117, 0.285, 0.498, 0.232, 0.608, 0.651, 0.343, 0.14, 0.681, 0.63, 0.278, 0.16, 0.115, 0.086, 0.0864, 0.113, 0.039, 0.262, 0.13, 0.0987, 0.074, 0.372, 0.837, 0.744, 0.727, 0.686, 0.12, 0.0763, 0.693, 0.804, 0.641, 0.156, 0.345, 0.803, 0.0709, 0.279, 0.051, 0.608, 0.504, 0.0382, 0.518, 0.618, 0.37, 0.238, 0.165, 0.266, 0.0325, 0.823, 0.869, 0.674, 0.454, 0.738, 0.887, 0.972, 0.553, 0.855, 0.684, 0.666, 0.334, 0.53, 0.935, 0.219, 0.218, 0.308, 0.0382, 0.032, 0.41, 0.278, 0.178, 0.158, 0.153, 0.629, 0.664, 0.529, 0.744, 0.653, 0.586, 0.0901, 0.442, 0.513, 0.7, 0.103, 0.0932, 0.0671, 0.0368, 0.0352, 0.154, 0.0357, 0.0399, 0.0493, 0.29, 0.288, 0.196, 0.477, 0.501, 0.194, 0.0397, 0.247, 0.38, 0.583, 0.433, 0.255, 0.787, 0.444, 0.696, 0.452, 0.484, 0.49, 0.283, 0.796, 0.225, 0.751, 0.039, 0.446, 0.529, 0.572, 0.231, 0.851, 0.178, 0.29, 0.287, 0.824, 0.0935, 0.646, 0.25, 0.195, 0.0946, 0.336, 0.434, 0.611, 0.443, 0.22, 0.436, 0.684, 0.64, 0.721, 0.464, 0.396, 0.131, 0.403, 0.378, 0.156, 0.223, 0.376, 0.319, 0.463, 0.147, 0.301, 0.187, 0.714, 0.251, 0.196, 0.357, 0.537, 0.0456, 0.641, 0.122, 0.658, 0.421, 0.131, 0.442, 0.531, 0.336, 0.421, 0.284, 0.132, 0.0493, 0.266, 0.474, 0.605, 0.0353, 0.526, 0.175, 0.151, 0.0344, 0.194, 0.504, 0.277, 0.883, 0.57, 0.862, 0.62, 0.0476, 0.209, 0.171, 0.869, 0.936, 0.515, 0.964, 0.303, 0.612, 0.957, 0.475, 0.176, 0.59, 0.699, 0.842, 0.96, 0.881, 0.521, 0.835, 0.954, 0.458, 0.795, 0.672, 0.231, 0.393, 0.417, 0.126, 0.28, 0.688, 0.483, 0.326, 0.403, 0.474, 0.686, 0.858, 0.349, 0.0502, 0.936, 0.724, 0.683, 0.926, 0.853, 0.261, 0.912, 0.16, 0.448, 0.879, 0.677, 0.291, 0.328, 0.296, 0.503, 0.736, 0.552, 0.543, 0.221, 0.752, 0.692, 0.868, 0.133, 0.727, 0.363, 0.501, 0.0477, 0.121, 0.52, 0.196, 0.0453, 0.254, 0.0335, 0.0398, 0.211, 0.0561, 0.15, 0.238, 0.113, 0.533, 0.292, 0.423, 0.742, 0.545, 0.362, 0.889, 0.451, 0.282, 0.115, 0.393, 0.965, 0.377, 0.32, 0.398, 0.598, 0.168, 0.0666, 0.186, 0.62, 0.53, 0.712, 0.538, 0.302, 0.438, 0.405, 0.489, 0.604, 0.271, 0.493, 0.568, 0.374, 0.354, 0.405, 0.651, 0.124, 0.423, 0.118, 0.306, 0.87, 0.293, 0.388, 0.38, 0.695, 0.651, 0.472, 0.606, 0.733, 0.0805, 0.542, 0.258, 0.376, 0.177, 0.534, 0.876, 0.494, 0.388, 0.288, 0.278, 0.313], 'valence_mean': 0.447654730713246, 'valence_median': 0.431, 'valence_min': 0.032, 'valence_max': 0.977, 'tempo': [100.351, 125.051, 91.537, 126.001, 128.189, 122.908, 124.038, 130.08, 119.982, 109.351, 84.804, 128.924, 106.435, 76.715, 104.344, 99.984, 124.881, 123.151, 106.965, 188.623, 170.84, 91.99, 110.009, 114.0, 75.009, 119.997, 166.014, 147.507, 75.004, 96.959, 119.7, 97.54, 144.087, 141.324, 97.996, 121.081, 150.919, 93.005, 109.071, 115.985, 131.983, 119.839, 132.009, 131.986, 132.01, 158.743, 124.013, 125.035, 139.936, 120.094, 121.974, 138.762, 72.074, 122.262, 92.014, 97.967, 120.318, 137.466, 119.998, 106.961, 113.015, 117.055, 85.03, 115.001, 107.271, 113.046, 170.065, 111.984, 116.966, 114.979, 126.143, 134.941, 172.099, 136.235, 146.195, 109.451, 151.983, 118.589, 106.003, 97.026, 183.051, 127.993, 96.032, 111.985, 148.001, 96.004, 164.993, 69.012, 159.9, 136.059, 125.992, 119.997, 122.039, 100.016, 104.948, 121.033, 127.984, 129.934, 95.984, 125.992, 81.305, 79.275, 93.06, 117.693, 79.929, 163.801, 119.093, 123.999, 78.054, 84.863, 98.004, 169.442, 142.584, 113.003, 135.997, 176.526, 116.981, 124.013, 151.011, 121.102, 117.97, 112.009, 139.977, 119.012, 139.799, 121.041, 141.952, 130.024, 139.981, 106.035, 204.429, 179.524, 150.019, 107.094, 188.061, 139.287, 94.036, 116.989, 78.732, 133.377, 128.905, 132.067, 127.206, 104.018, 145.992, 131.989, 127.922, 139.428, 138.388, 78.029, 202.376, 110.689, 112.747, 121.352, 120.163, 112.832, 96.776, 127.026, 185.963, 131.502, 101.967, 99.851, 119.988, 119.954, 116.054, 86.923, 119.989, 164.048, 140.035, 139.474, 115.98, 91.016, 104.02, 119.233, 84.008, 98.021, 98.011, 104.996, 115.051, 83.008, 80.032, 140.039, 84.036, 151.276, 79.646, 82.165, 162.411, 87.678, 77.841, 89.744, 89.455, 102.758, 144.902, 130.773, 92.059, 99.124, 123.064, 200.3, 84.746, 103.366, 118.579, 118.588, 118.97, 122.008, 123.995, 121.984, 105.988, 117.97, 113.961, 120.01, 104.149, 120.004, 123.042, 96.916, 113.003, 122.043, 95.815, 103.967, 115.03, 88.421, 125.01, 104.991, 109.96, 115.963, 112.82, 104.976, 102.99, 111.971, 102.382, 130.006, 87.082, 75.208, 96.394, 57.0, 99.732, 118.091, 149.975, 100.042, 79.031, 102.304, 141.504, 99.529, 131.958, 121.97, 76.168, 70.885, 99.921, 123.139, 145.926, 78.572, 117.023, 144.982, 129.903, 164.971, 113.818, 83.827, 111.884, 111.86, 140.949, 163.899, 130.579, 173.987, 146.122, 98.01, 104.215, 189.895, 175.558, 105.601, 158.965, 165.846, 131.99, 114.992, 106.975, 203.681, 95.063, 125.036, 203.532, 127.988, 107.017, 125.074, 110.999, 114.995, 119.981, 124.022, 100.024, 119.997, 115.02, 118.006, 114.333, 123.984, 91.452, 82.207, 109.209, 84.615, 88.223, 87.325, 85.419, 80.656, 103.605, 82.616, 120.011, 83.046, 122.02, 120.008, 118.017, 112.966, 127.972, 82.147, 119.014, 122.984, 102.994, 119.971, 90.021, 107.984, 109.994, 114.984, 124.973, 119.985, 139.925, 112.041, 120.008, 119.992, 115.007, 169.967, 119.947, 119.978, 109.006, 138.747, 114.987, 130.973, 155.939, 81.004, 101.02, 155.967, 105.06, 144.92, 143.046, 185.02, 146.036, 139.946, 99.997, 139.939, 139.919, 118.385, 164.036, 114.003, 114.0, 99.995, 74.981, 119.924, 119.991, 126.027, 124.171, 121.998, 125.006, 133.113, 138.233, 128.569, 137.198, 133.101, 124.004, 120.03, 121.009, 123.007, 121.018, 125.011, 125.986, 116.979, 127.003, 125.99, 140.958, 180.521, 82.201, 141.112, 135.191, 78.975, 117.037, 127.951, 123.017, 178.138, 97.798, 101.833, 114.92, 157.076, 145.896, 143.932, 133.956, 94.836, 142.181, 165.743, 189.938, 173.959, 109.995, 96.003, 141.061, 95.972, 84.975, 109.978, 109.941, 173.949, 167.085, 124.847, 155.995, 160.046, 100.984, 98.603, 127.993, 147.201, 122.839, 124.866, 120.012, 120.006, 120.054, 120.0, 117.994, 74.526, 115.006, 119.635, 121.987, 115.99, 102.025, 119.982, 154.971, 104.997, 107.999, 107.983, 109.019, 104.992, 110.014, 120.005, 132.004, 116.998, 123.01, 150.036, 123.004, 119.999, 120.031, 120.002, 131.998, 145.006, 86.993, 140.096, 125.014, 125.024, 105.025, 110.026, 115.007, 89.018, 178.134, 82.221, 168.022, 134.91, 119.985, 135.999, 79.875, 120.01, 85.934, 97.978, 86.003, 119.971, 128.014, 111.87, 130.084, 115.954, 114.01, 62.866, 119.992, 117.001, 117.022, 115.121, 120.006, 134.994, 125.04, 124.998, 126.995, 104.969, 121.015, 120.002, 125.001, 120.985, 121.984, 105.0, 97.986, 117.882, 122.995, 100.015, 97.001, 90.019, 120.006, 120.019, 76.172, 98.41, 148.07, 97.552, 118.003, 114.999, 120.007, 123.999, 120.01, 115.004, 117.007, 124.002, 122.001, 102.008, 120.01, 124.01, 146.496, 115.111, 93.916, 119.993, 121.002, 120.036, 127.018, 113.992, 94.983, 79.932, 81.111, 161.177, 123.504, 183.978, 83.999, 171.921, 118.055, 128.007, 140.115, 98.257, 125.017, 109.138, 92.38, 98.991, 111.953, 90.233, 136.846, 121.694, 99.991, 120.009, 117.994, 119.959, 116.986, 118.004, 124.002, 118.003, 117.011, 117.981, 100.009, 119.973, 125.998, 116.042, 121.866, 122.032, 119.962, 97.531, 71.638, 68.494, 125.126, 122.999, 120.007, 120.971, 122.982, 122.988, 120.997, 120.585, 120.002, 118.414, 120.035, 140.075, 105.036, 128.981, 105.013, 128.053, 128.015, 120.012, 110.007, 125.557, 101.492, 126.97, 103.993, 120.795, 120.008, 106.98, 127.007, 127.032, 124.712, 101.979, 122.013, 127.021, 119.992, 123.015, 119.998, 128.005, 123.983, 123.979, 121.999, 104.96, 114.584, 136.983, 91.542, 75.756, 143.292, 94.552, 139.752, 79.19, 154.375, 102.669, 123.0, 135.057, 123.982, 128.96, 128.463, 119.986, 114.989, 128.994, 134.606, 130.173, 123.001, 120.002, 117.999, 104.985, 58.492, 117.985, 119.004, 117.997, 124.005, 118.014, 124.856, 120.022, 124.114, 119.974, 112.015, 119.013, 110.013, 120.97, 120.003, 120.969, 89.993, 110.006, 116.995, 126.97, 126.979, 127.018, 109.999, 164.003, 115.962, 104.536, 93.743, 82.449, 125.998, 124.044, 120.578, 123.0, 127.007, 119.977, 120.885, 120.99, 120.056, 178.383, 125.0, 121.999, 129.001, 126.982, 123.989, 122.994, 121.991, 123.009, 126.0, 126.989, 126.999, 114.009, 114.021, 120.016, 112.001, 112.033, 119.875, 111.999, 111.986, 118.036, 116.992, 127.734, 89.951, 72.878, 90.015, 120.016, 116.976, 118.014, 133.118, 121.748, 134.974], 'tempo_mean': 119.34637991266375, 'tempo_median': 119.997, 'tempo_min': 57.0, 'tempo_max': 204.429, 'duration_ms': [127920, 224133, 171653, 233280, 371533, 201947, 160720, 238373, 250000, 177093, 190185, 234653, 214255, 171728, 221874, 193059, 277506, 271088, 189796, 367391, 235000, 222335, 190448, 314487, 230630, 261742, 224237, 343359, 248840, 329800, 266600, 241547, 193120, 197973, 248213, 205920, 167853, 235773, 178613, 232680, 383893, 219760, 221000, 310120, 240640, 187133, 265787, 233107, 155293, 204290, 280070, 185728, 210982, 228467, 142174, 222719, 273427, 156000, 201040, 204160, 242267, 234960, 209826, 345304, 327387, 334225, 297316, 250826, 200827, 222000, 218733, 321533, 237027, 282560, 309667, 252360, 286333, 236640, 305703, 299970, 289307, 320654, 230693, 281407, 243509, 253831, 271673, 262540, 248920, 196570, 210559, 201042, 259664, 186093, 196489, 247934, 228027, 238479, 227907, 225155, 234487, 164640, 167173, 237920, 160136, 109353, 145603, 258293, 254840, 142893, 536471, 349693, 462267, 390013, 201720, 335480, 352004, 473333, 418773, 347347, 270507, 465333, 217040, 213640, 235000, 289607, 252200, 234733, 250333, 302573, 189293, 183533, 143005, 234160, 170840, 290736, 190613, 242296, 173893, 383800, 218160, 316188, 233857, 246952, 205614, 206600, 253435, 263923, 177796, 264120, 196627, 168720, 153333, 200253, 203000, 158013, 211767, 193573, 194400, 133867, 210613, 268133, 212333, 199746, 208669, 209067, 268440, 178720, 263227, 229747, 238667, 217053, 225600, 252107, 211693, 208707, 159013, 224680, 255720, 215093, 155960, 273864, 165983, 351876, 247055, 220836, 300996, 183222, 247839, 195643, 213622, 221194, 220617, 178313, 201870, 257472, 185066, 180062, 185400, 223200, 345560, 376973, 361520, 199087, 471996, 283389, 268836, 255613, 229337, 249840, 194023, 276785, 280878, 261881, 269815, 357357, 212044, 149811, 253848, 342604, 556924, 288080, 209453, 368373, 326387, 475058, 283425, 265747, 250533, 222270, 200195, 209400, 160160, 225780, 304653, 219693, 188987, 213747, 214240, 350742, 339190, 218319, 238146, 195353, 341062, 268987, 266041, 216893, 242829, 72043, 155720, 262231, 252231, 262600, 206975, 135707, 238480, 136000, 115000, 171789, 195446, 193669, 121171, 188782, 161800, 216592, 217120, 241021, 249706, 240114, 213989, 187837, 221279, 212815, 224728, 208910, 241025, 249375, 205368, 186149, 219946, 218358, 339258, 192533, 195862, 247862, 201182, 277726, 204024, 208072, 218307, 258044, 159013, 213760, 298440, 219840, 225154, 251773, 190999, 209025, 190750, 184990, 193105, 253999, 291433, 292971, 365033, 208931, 193570, 330579, 230213, 238080, 234853, 329467, 257747, 276253, 228347, 239000, 233627, 279880, 341000, 178907, 217565, 321087, 313468, 286145, 286170, 173380, 329175, 62215, 206968, 213242, 213840, 207445, 201446, 156993, 287852, 134929, 202963, 209264, 318147, 280074, 248382, 250633, 267887, 327787, 255248, 335867, 144938, 257865, 263146, 429700, 774294, 483960, 364360, 481573, 392253, 604828, 268227, 405067, 502002, 356493, 182788, 347466, 337681, 370640, 406707, 427295, 579520, 521815, 390253, 225387, 219405, 190329, 213040, 199312, 236960, 206270, 219306, 210622, 192042, 208954, 182500, 205605, 245196, 353333, 254755, 245053, 199437, 316627, 197673, 203103, 226043, 215191, 194275, 237165, 207301, 219988, 225500, 221675, 228693, 416827, 428369, 516520, 315720, 240591, 340773, 138707, 171000, 296200, 323027, 343232, 267333, 600613, 511308, 253976, 354184, 301093, 390234, 513125, 249957, 219603, 207192, 348093, 266455, 296045, 319266, 240318, 215804, 265800, 249549, 338608, 528147, 395229, 452443, 357773, 277607, 517416, 349935, 201494, 184987, 165391, 254042, 192006, 168677, 203537, 232328, 229160, 200170, 198120, 67520, 120780, 158000, 219893, 143880, 156240, 194947, 129539, 73617, 94903, 237231, 274729, 201446, 196365, 218911, 155116, 340199, 196923, 209231, 205678, 577345, 129883, 236421, 404041, 340086, 369558, 323493, 246213, 371434, 348307, 283389, 277220, 264046, 182764, 196559, 222092, 260159, 245905, 330848, 278205, 127760, 143174, 166568, 179060, 629447, 504268, 490991, 498467, 448184, 357787, 560060, 397612, 504026, 184227, 351207, 410471, 96888, 452062, 192787, 350374, 424671, 386631, 387200, 203637, 333693, 423280, 311907, 258093, 242467, 258173, 234360, 289467, 333893, 263413, 207947, 202866, 262023, 303893, 337240, 223030, 298929, 256492, 183061, 250133, 412220, 425417, 511308, 398000, 373917, 523285, 405500, 517518, 538494, 527484, 322773, 335987, 205693, 205187, 304440, 211480, 270440, 324240, 192547, 376387, 413315, 459964, 477738, 260048, 592086, 368855, 369978, 324669, 385962, 347462, 249933, 203867, 208493, 204360, 265280, 214373, 218600, 238480, 293280, 223000, 323362, 502162, 151739, 542325, 320222, 356078, 418379, 162133, 425911, 58874, 413693, 396876, 429409, 554805, 478397, 438979, 253893, 250394, 382984, 267721, 154907, 225533, 153960, 166187, 329387, 367013, 164600, 264933, 309227, 155080, 415730, 515754, 381290, 292693, 451706, 547255, 404870, 465116, 428498, 314027, 647679, 485289, 363971, 394021, 326230, 391999, 342859, 480000, 418079, 423083, 163200, 170120, 178580, 341771, 361920, 429739, 336866, 380308, 369280, 335571, 369627, 364600, 424053, 502162, 338375, 494554, 295772, 272933, 150000, 135732, 303486, 179705, 269047, 263387, 254938, 333662, 326000, 277960, 233694, 478017, 296000, 271876, 257615, 480258, 552694, 498091, 492373, 454927, 427320, 427513, 409977, 373304, 355116, 358886, 244000, 413196, 476786, 341786, 538996, 274454, 303167, 439067, 492884, 277438, 142756, 261178, 161000, 125574, 182044, 233082, 194305, 196812, 232551], 'duration_ms_mean': 277233.86026200873, 'duration_ms_median': 249706, 'duration_ms_min': 58874, 'duration_ms_max': 774294, 'time_signature': [4, 4, 4, 4, 4, 4, 4, 4, 4, 4, 4, 4, 4, 4, 4, 4, 4, 4, 4, 4, 4, 4, 4, 4, 4, 4, 4, 4, 4, 4, 4, 4, 4, 4, 4, 3, 4, 4, 4, 4, 4, 4, 4, 4, 4, 4, 4, 4, 4, 4, 4, 4, 4, 4, 4, 4, 4, 4, 4, 4, 4, 4, 4, 4, 4, 4, 4, 4, 4, 4, 4, 4, 4, 4, 4, 4, 4, 4, 4, 4, 4, 4, 4, 4, 4, 4, 4, 4, 4, 4, 4, 4, 4, 4, 4, 4, 4, 4, 4, 4, 4, 4, 4, 4, 4, 4, 4, 4, 4, 4, 4, 4, 4, 4, 4, 3, 4, 4, 4, 4, 4, 4, 4, 4, 4, 4, 4, 4, 4, 4, 4, 4, 4, 4, 4, 4, 4, 4, 4, 4, 4, 4, 4, 4, 4, 5, 4, 4, 4, 4, 4, 4, 4, 4, 4, 4, 4, 4, 4, 4, 4, 4, 4, 4, 4, 4, 4, 4, 4, 4, 4, 4, 4, 4, 4, 4, 4, 4, 4, 4, 4, 4, 4, 4, 4, 4, 4, 4, 4, 4, 4, 4, 5, 5, 4, 4, 5, 4, 4, 4, 4, 4, 4, 4, 4, 4, 4, 4, 4, 4, 4, 4, 4, 4, 4, 3, 4, 4, 4, 4, 4, 4, 4, 4, 4, 4, 4, 4, 4, 4, 4, 4, 4, 4, 4, 4, 4, 4, 4, 4, 4, 4, 4, 4, 4, 4, 4, 4, 4, 1, 4, 4, 4, 4, 4, 5, 4, 4, 4, 4, 5, 4, 4, 4, 4, 4, 3, 4, 4, 4, 4, 4, 4, 4, 4, 4, 4, 4, 4, 4, 4, 4, 4, 4, 4, 4, 4, 4, 4, 4, 4, 4, 4, 4, 4, 4, 4, 4, 4, 4, 4, 4, 4, 4, 4, 4, 4, 4, 4, 4, 4, 4, 4, 4, 4, 4, 4, 4, 4, 4, 4, 4, 4, 4, 4, 4, 4, 4, 4, 4, 4, 4, 4, 4, 4, 4, 4, 4, 4, 4, 4, 4, 4, 4, 4, 4, 4, 4, 4, 4, 4, 4, 3, 4, 4, 4, 4, 3, 4, 4, 4, 4, 4, 5, 4, 4, 4, 4, 4, 4, 4, 4, 4, 4, 4, 4, 4, 4, 4, 4, 4, 4, 4, 4, 4, 4, 4, 4, 4, 4, 4, 4, 4, 4, 4, 4, 4, 4, 4, 4, 4, 4, 4, 4, 4, 3, 4, 4, 5, 4, 4, 4, 4, 4, 4, 3, 4, 4, 4, 4, 4, 4, 5, 4, 4, 4, 4, 4, 4, 4, 4, 4, 4, 4, 4, 4, 3, 4, 4, 4, 4, 4, 4, 4, 4, 4, 4, 4, 4, 4, 4, 4, 4, 5, 4, 3, 3, 4, 4, 4, 4, 4, 4, 4, 4, 3, 4, 4, 4, 4, 4, 3, 4, 4, 4, 4, 4, 4, 4, 4, 4, 4, 4, 4, 4, 4, 4, 4, 4, 4, 4, 4, 4, 3, 4, 4, 4, 4, 4, 4, 4, 4, 4, 4, 4, 4, 5, 4, 3, 1, 4, 4, 4, 4, 4, 4, 4, 4, 4, 4, 4, 4, 4, 4, 4, 3, 4, 4, 4, 4, 4, 4, 4, 5, 4, 4, 4, 4, 4, 4, 4, 4, 4, 4, 4, 4, 4, 4, 3, 4, 4, 3, 4, 4, 4, 4, 4, 4, 4, 4, 4, 3, 4, 4, 4, 4, 4, 4, 4, 4, 4, 4, 4, 4, 4, 4, 4, 4, 4, 4, 4, 4, 4, 4, 4, 4, 4, 4, 4, 4, 4, 4, 4, 4, 4, 3, 3, 4, 4, 3, 3, 4, 3, 4, 4, 4, 4, 4, 4, 4, 4, 4, 4, 4, 4, 4, 4, 4, 4, 4, 4, 5, 4, 5, 4, 4, 4, 4, 4, 4, 4, 4, 4, 4, 4, 4, 4, 4, 4, 4, 4, 4, 4, 4, 4, 3, 4, 3, 4, 4, 4, 4, 4, 4, 4, 4, 4, 4, 4, 4, 4, 4, 4, 4, 4, 4, 3, 4, 4, 4, 4, 4, 4, 4, 4, 4, 4, 4, 4, 4, 4, 4, 4, 4, 4, 4, 4], 'time_signature_min': 1, 'time_signature_max': 5, 'time_signature_mode': [4]};http://www.songkick.com/festivals/2072544-all-points-east/id/31697529-all-points-east-2018?utm_source=48622&utm_medium=partner;Friday;-0.0425357;0.648;0.63;[1];0.0593;0.113;0.431;277233.8603;[4];;;;;;;;;;;;
1581;25/5/2018 0:00;;32477794;Raw Power Festival 2018;0.004377;Festival;Friday;51.5575896;-0.1387684;10;1386893;0.272;0.816;[7];-6.901;[1];0.0558;0.00138;0.542;0.199;0.24;268495.0486;[4]
1582;25/5/2018 0:00;2018-05-25T19:30:00+0100;32505574;Magnus Carlson with French Boutik, Fay Hallam, and DJ Dave Edwards at 100 Club (May 25, 2018);0.001364;Concert;Friday;51.5160992;-0.1351725;7;11753;0.514;0.698;[2];-7.0605;[1];0.0366;0.10025;0.000473;0.133;0.645;211961;[4]
1662;25/5/2018 0:00;;33905419;Chris Stylez at Unknown venue (May 25, 2018);0.000224;Concert;Friday;51.5073509;-0.1277583;25;1130;0.6275;0.6475;[7];-6.7355;[0];0.06825;0.2315;3.03E-06;0.108;0.528;192123.2;[4]
1666;25/5/2018 0:00;2018-05-25T22:00:00+0100;33944669;MIKE (Rapper), Wu-Lu, and Kwasiba Savage at Red Gates Warehouse (May 25, 2018);2.80E-05;Concert;Friday;51.5389018;-0.022814;9.5;441;0.522;0.317;[8];-16.976;[1];0.0584;0.241;0.103;0.11;0.162;230450.4545;[4]
1686;26/5/2018 0:00;2018-05-26T20:00:00+0100;32686444;Smoove & Turrell at Suburbs (May 26, 2018);0.002799;Concert;Saturday;51.2501654;-0.5912318;39;11279;0.763;0.8175;[10];-5.9985;[0];0.0538;0.04795;0.0029235;0.0743;0.786;254343;[4]
1717;26/5/2018 0:00;2018-05-26T22:00:00+0100;33508354;Tortured Soul at CLF Art Cafe, The Bussey Building (May 26, 2018);0.00281;Concert;Saturday;51.4698563;-0.0679964;39;10996;0.8175;0.6345;[6];-7.999;[0];0.03995;0.00695;0.0001965;0.0821;0.903;348718.6;[4]
1735;26/5/2018 0:00;2018-05-26T20:00:00+0100;33727934;Shola Ama at The Old Queen's Head (May 26, 2018);0.007945;Concert;Saturday;51.5372495;-0.1004071;45;13658;0.704;0.6015;[6];-7.1135;[0];0.0576;0.169;0.0005055;0.104;0.685;258429.1;[4]
1751;26/5/2018 0:00;2018-05-26T22:00:00+0100;33835384;Shaun Ashby with Dj Fiddla and Angela Rose at Bar 512 (May 26, 2018);2.00E-06;Concert;Saturday;51.5439981;-0.0758803;0;15;0.768;0.641;[7];-11.329;[0];0.081;0.00457;0.87;0.106;0.695;424326.5455;[4]
1765;27/5/2018 0:00;2018-05-27T19:00:00+0100;31841544;Hue and Cry and The Christians at Ulu Live at Student Central (May 27, 2018);0.00442;Concert;Sunday;51.5226174;-0.1315584;30;13990;0.584;0.614;[0];-11.029;[1];0.0353;0.4865;0;0.111;0.678;323925.8;[4]
1819;27/5/2018 0:00;2018-05-27T19:00:00+0100;33843639;Harbour Sharks at The Big Red (May 27, 2018);3.00E-06;Concert;Sunday;51.5579772;-0.1198271;3;63;0.576;0.944;[6];-3.6725;[1];0.0613;0.00402;0.01795;0.159;0.6085;184234.7;[4]
1823;27/5/2018 0:00;2018-05-27T11:30:00+0100;33897964;Norman Jay MBE at Peckham Rye Park (May 27, 2018);0.000552;Concert;Sunday;51.5078;-0.128;;;;;;;;;;;;;;
1836;25/5/2018 0:00;2018-05-25T20:00:00+0100;34006114;The Curious Incident at Maggies (May 25, 2018);0.00011;Concert;Friday;51.4862304;-0.1801911;30;1585;0.585;0.821;[1];-4.578;[0];0.10495;0.0409;0;0.159;0.7565;209535.4;[4]
1846;28/5/2018 0:00;;32512534;Jules Rendell at Pizza Express - Holborn (May 28, 2018);1.20E-05;Concert;Monday;51.5180357;-0.1186285;11;126;0.5535;0.3935;[1];-10.8585;[0];0.0416;0.1535;0.000679;0.1835;0.287;213855.5;[4]
1862;28/5/2018 0:00;;33780644;All Points East 2018;0.001741;Festival;Monday;51.5352741;-0.0425357;34;1471;0.582;0.5485;[11];-8.582;[1];0.0471;0.809;0.7125;0.1245;0.6695;210579.3;[4]
1877;29/5/2018 0:00;2018-05-29T19:30:00+0100;32748304;Nilüfer Yanya and ALASKALASKA at Village Underground (May 29, 2018);0.0025;Concert;Tuesday;51.5237877;-0.0780335;43.5;20612;0.721;0.442;[4];-9.846;[0];0.0381;0.345;0.00113;0.105;0.358;244372.2353;[4]
1885;29/5/2018 0:00;2018-05-29T19:30:00+0100;33078719;Jake La Botz at Paper Dress Vintage (May 29, 2018);0.000155;Concert;Tuesday;51.5473051;-0.0546359;26;2088;0.7075;0.45;[7];-7.37;[1];0.0321;0.7625;0.000285;0.1195;0.4895;212324.7;[4]
1886;29/5/2018 0:00;2018-05-29T19:00:00+0100;33130364;James Bay with Lily Moore at Roundhouse (May 29, 2018);0.133313;Concert;Tuesday;51.5429551;-0.1491962;59.5;1782018;0.5515;0.4255;[1];-7.42;[1];0.04005;0.4875;5.60E-07;0.1075;0.335;227499;[4]
